{
   "5000128092212":{
      "branchCode":"5000128092212",
      "storeName":"152",
      "monday":"Bow, Burston Cross Road",
      "tuesday":"07:00-22:00",
      "wednesday":"07:00-22:00",
      "thursday":"07:00-22:00",
      "friday":"07:00-22:00",
      "saturday":"07:00-22:00",
      "sunday":"07:00-22:00",
      "area":"07:00-22:00",
      "areaManager":"1",
      "address":"Burston Road",
      "town":"Devon",
      "county":"EX17 6LA",
      "postcode":"01363 82986",
      "telephone":"0152@southerncoops.co.uk",
      "email":"50.8010657",
      "latitude":-3.8261356,
      "longitude":"Yes",
      "carPark":"https://mostlane.sharepoint.com/Mostlane%20Shared%20Documents/Forms/AllItems.aspx?id=%2FMostlane%20Shared%20Documents%2FMostlane%20Construction%2FTSC%20Compliance%2FRetail%2F152%20Bow%20Burston%20Cross%20Road"
   },
   "5000128092364":{
      "branchCode":"5000128092364",
      "storeName":"177",
      "monday":"Nailsea, Hannah More Road",
      "tuesday":"07:00-22:00",
      "wednesday":"07:00-22:00",
      "thursday":"07:00-22:00",
      "friday":"07:00-22:00",
      "saturday":"07:00-22:00",
      "sunday":"07:00-22:00",
      "area":"07:00-22:00",
      "areaManager":"1",
      "address":"6 Hannah More Road",
      "town":"Somerset",
      "county":"BS48 4RZ",
      "postcode":"01275 855620",
      "telephone":"0177@southerncoops.co.uk",
      "email":"51.4288756",
      "latitude":-2.7767234,
      "longitude":"Yes",
      "carPark":"https://mostlane.sharepoint.com/Mostlane%20Shared%20Documents/Forms/AllItems.aspx?id=%2FMostlane%20Shared%20Documents%2FMostlane%20Construction%2FTSC%20Compliance%2FRetail%2F177%20Nailsea%20Hannah%20More%20Road"
   },
   "5000128091941":{
      "branchCode":"5000128091941",
      "storeName":"226",
      "monday":"Cotford St Luke, Graham Way",
      "tuesday":"07:00-22:00",
      "wednesday":"07:00-22:00",
      "thursday":"07:00-22:00",
      "friday":"07:00-22:00",
      "saturday":"07:00-22:00",
      "sunday":"07:00-22:00",
      "area":"07:00-22:00",
      "areaManager":"1",
      "address":"82 Graham Way",
      "town":"Somerset",
      "county":"TA4 1HX",
      "postcode":"01823 432720",
      "telephone":"0226@southerncoops.co.uk",
      "email":"51.0393758",
      "latitude":-3.1874132,
      "longitude":"Yes",
      "carPark":"https://mostlane.sharepoint.com/Mostlane%20Shared%20Documents/Forms/AllItems.aspx?id=%2FMostlane%20Shared%20Documents%2FMostlane%20Construction%2FTSC%20Compliance%2FRetail%2F226%20Cotford%20St%20Luke%20Graham%20Way"
   },
   "5000128092542":{
      "branchCode":"5000128092542",
      "storeName":"318",
      "monday":"Norton Fitzwarren, Morse Road",
      "tuesday":"07:00-22:00",
      "wednesday":"07:00-22:00",
      "thursday":"07:00-22:00",
      "friday":"07:00-22:00",
      "saturday":"07:00-22:00",
      "sunday":"07:00-22:00",
      "area":"07:00-22:00",
      "areaManager":"1",
      "address":"Morse Road ",
      "town":"Somerset ",
      "county":"TA2 6DG ",
      "postcode":"01823 330774",
      "telephone":"0318@southerncoops.co.uk",
      "email":"51.0260835",
      "latitude":-3.1482828,
      "longitude":"Yes",
      "carPark":"https://mostlane.sharepoint.com/Mostlane%20Shared%20Documents/Forms/AllItems.aspx?id=%2FMostlane%20Shared%20Documents%2FMostlane%20Construction%2FTSC%20Compliance%2FRetail%2F318%20Norton%20Fitzwarren%20Morse%20Road"
   },
   "5000128092775":{
      "branchCode":"5000128092775",
      "storeName":"334",
      "monday":"Exeter, Buddle Lane ",
      "tuesday":"06:30-22:00",
      "wednesday":"06:30-22:00",
      "thursday":"06:30-22:00",
      "friday":"06:30-22:00",
      "saturday":"06:30-22:00",
      "sunday":"06:30-22:00",
      "area":"06:30-22:00",
      "areaManager":"1",
      "address":"103 Buddle Lane ",
      "town":"Devon",
      "county":"EX4 1QT ",
      "postcode":"01392 413339",
      "telephone":"0334@southerncoops.co.uk",
      "email":"50.7205506",
      "latitude":-3.5496605,
      "longitude":"Yes",
      "carPark":"https://mostlane.sharepoint.com/Mostlane%20Shared%20Documents/Forms/AllItems.aspx?id=%2FMostlane%20Shared%20Documents%2FMostlane%20Construction%2FTSC%20Compliance%2FRetail%2F334%20Exeter%20Buddle%20Lane%20"
   },
   "5000128092623":{
      "branchCode":"5000128092623",
      "storeName":"335",
      "monday":"Bridgwater, Stockmoor Drive",
      "tuesday":"07:00-22:00",
      "wednesday":"07:00-22:00",
      "thursday":"07:00-22:00",
      "friday":"07:00-22:00",
      "saturday":"07:00-22:00",
      "sunday":"07:00-22:00",
      "area":"07:00-22:00",
      "areaManager":"1",
      "address":"Unit 1 Stockmoor Shopping Centre ",
      "town":"Somerset",
      "county":"TA6 6WU",
      "postcode":"01278 429234",
      "telephone":"0335@southerncoops.co.uk",
      "email":"51.10899",
      "latitude":-2.999383,
      "longitude":"Yes",
      "carPark":"https://mostlane.sharepoint.com/Mostlane%20Shared%20Documents/Forms/AllItems.aspx?id=%2FMostlane%20Shared%20Documents%2FMostlane%20Construction%2FTSC%20Compliance%2FRetail%2F335%20Bridgwater%20Stockmoor%20Drive"
   },
   "5000128092704":{
      "branchCode":"5000128092704",
      "storeName":"348",
      "monday":"Taunton, Wellington New Road ",
      "tuesday":"07:00-22:00",
      "wednesday":"07:00-22:00",
      "thursday":"07:00-22:00",
      "friday":"07:00-22:00",
      "saturday":"07:00-22:00",
      "sunday":"07:00-22:00",
      "area":"07:00-22:00",
      "areaManager":"1",
      "address":"33 Wellington New Road ",
      "town":"Somerset",
      "county":"TA1 5LU ",
      "postcode":"01823 289871",
      "telephone":"0348@southerncoops.co.uk",
      "email":"51.0120854",
      "latitude":-3.1287411,
      "longitude":"Yes",
      "carPark":"https://mostlane.sharepoint.com/Mostlane%20Shared%20Documents/Forms/AllItems.aspx?id=%2FMostlane%20Shared%20Documents%2FMostlane%20Construction%2FTSC%20Compliance%2FRetail%2F348%20Taunton%20Wellington%20New%20Road%20"
   },
   "5000128092788":{
      "branchCode":"5000128092788",
      "storeName":"350",
      "monday":"Exeter, Alphington Road ",
      "tuesday":"06:30-22:00",
      "wednesday":"06:30-22:00",
      "thursday":"06:30-22:00",
      "friday":"06:30-22:00",
      "saturday":"06:30-22:00",
      "sunday":"06:30-22:00",
      "area":"06:30-22:00",
      "areaManager":"1",
      "address":"107 Alphington Road ",
      "town":"Devon",
      "county":"EX2 8JD ",
      "postcode":"01392 459634",
      "telephone":"0350@southerncoops.co.uk",
      "email":"50.7104245",
      "latitude":-3.5376639,
      "longitude":"Yes",
      "carPark":"https://mostlane.sharepoint.com/Mostlane%20Shared%20Documents/Forms/AllItems.aspx?id=%2FMostlane%20Shared%20Documents%2FMostlane%20Construction%2FTSC%20Compliance%2FRetail%2F350%20Exeter%20Alphington%20Road%20"
   },
   "5000128092827":{
      "branchCode":"5000128092827",
      "storeName":"358",
      "monday":"Exmouth, Exeter Road ",
      "tuesday":"06:30-22:00",
      "wednesday":"06:30-22:00",
      "thursday":"06:30-22:00",
      "friday":"06:30-22:00",
      "saturday":"06:30-22:00",
      "sunday":"06:30-22:00",
      "area":"06:30-22:00",
      "areaManager":"1",
      "address":"190b Exeter Road ",
      "town":"Devon",
      "county":"EX8 3EA",
      "postcode":"01395 275570",
      "telephone":"0358@southerncoops.co.uk",
      "email":"50.6319685",
      "latitude":-3.4099835,
      "longitude":"Yes",
      "carPark":"https://mostlane.sharepoint.com/Mostlane%20Shared%20Documents/Forms/AllItems.aspx?id=%2FMostlane%20Shared%20Documents%2FMostlane%20Construction%2FTSC%20Compliance%2FRetail%2F358%20Exmouth%20Exeter%20Road%20"
   },
   "5000128092937":{
      "branchCode":"5000128092937",
      "storeName":"372",
      "monday":"Banwell, Knightcott Road",
      "tuesday":"07:00-22:00",
      "wednesday":"07:00-22:00",
      "thursday":"07:00-22:00",
      "friday":"07:00-22:00",
      "saturday":"07:00-22:00",
      "sunday":"07:00-22:00",
      "area":"07:00-22:00",
      "areaManager":"1",
      "address":"44 Knightcott Road",
      "town":"Somerset",
      "county":"BS29 6HF",
      "postcode":"01934 707384",
      "telephone":"0372@southerncoops.co.uk",
      "email":"51.3299313",
      "latitude":-2.876011,
      "longitude":"Yes",
      "carPark":"https://mostlane.sharepoint.com/Mostlane%20Shared%20Documents/Forms/AllItems.aspx?id=%2FMostlane%20Shared%20Documents%2FMostlane%20Construction%2FTSC%20Compliance%2FRetail%2F372%20Banwell%20Knightcott%20Road"
   },
   "5000128092940":{
      "branchCode":"5000128092940",
      "storeName":"373",
      "monday":"Cranbrook, Younghayes Road",
      "tuesday":"06:30-22:30",
      "wednesday":"06:30-22:30",
      "thursday":"06:30-22:30",
      "friday":"06:30-22:30",
      "saturday":"06:30-22:30",
      "sunday":"06:30-22:30",
      "area":"06:30-22:30",
      "areaManager":"1",
      "address":"Gallops Court, 147 Younghayes Road",
      "town":"Devon",
      "county":"EX5 7EA",
      "postcode":"01404 510648",
      "telephone":"0373@southerncoops.co.uk",
      "email":"50.747434",
      "latitude":-3.41545,
      "longitude":"Yes",
      "carPark":"https://mostlane.sharepoint.com/Mostlane%20Shared%20Documents/Forms/AllItems.aspx?id=%2FMostlane%20Shared%20Documents%2FMostlane%20Construction%2FTSC%20Compliance%2FRetail%2F373%20Cranbrook%20Younghayes%20Road"
   },
   "5000128092995":{
      "branchCode":"5000128092995",
      "storeName":"377",
      "monday":"Exmouth, Brixington Parade",
      "tuesday":"07:00-22:00",
      "wednesday":"07:00-22:00",
      "thursday":"07:00-22:00",
      "friday":"07:00-22:00",
      "saturday":"07:00-22:00",
      "sunday":"07:00-22:00",
      "area":"07:00-22:00",
      "areaManager":"1",
      "address":"Brixington Parade",
      "town":"Devon",
      "county":"EX8 4JS",
      "postcode":"01395 274224",
      "telephone":"0377@southerncoops.co.uk",
      "email":"50.63668",
      "latitude":-3.391268,
      "longitude":"Yes",
      "carPark":"https://mostlane.sharepoint.com/Mostlane%20Shared%20Documents/Forms/AllItems.aspx?id=%2FMostlane%20Shared%20Documents%2FMostlane%20Construction%2FTSC%20Compliance%2FRetail%2F377%20Exmouth%20Brixington%20Parade"
   },
   "5000128093279":{
      "branchCode":"5000128093279",
      "storeName":"405",
      "monday":"Burnham on Sea, Berrow Road",
      "tuesday":"07:00-22:00",
      "wednesday":"07:00-22:00",
      "thursday":"07:00-22:00",
      "friday":"07:00-22:00",
      "saturday":"07:00-22:00",
      "sunday":"07:00-22:00",
      "area":"07:00-22:00",
      "areaManager":"1",
      "address":"229, Berrow Road,",
      "town":"Somerset",
      "county":"TA8 2JQ",
      "postcode":"01278 786969",
      "telephone":"0405@southerncoops.co.uk",
      "email":"51.2586274",
      "latitude":-3.0052819,
      "longitude":"Yes",
      "carPark":"https://mostlane.sharepoint.com/Mostlane%20Shared%20Documents/Forms/AllItems.aspx?id=%2FMostlane%20Shared%20Documents%2FMostlane%20Construction%2FTSC%20Compliance%2FRetail%2F405%20Burnham%20on%20Sea%20Berrow%20Road"
   },
   "5000128093185":{
      "branchCode":"5000128093185",
      "storeName":"391",
      "monday":"Portishead, Port Marine",
      "tuesday":"07:00-22:00",
      "wednesday":"07:00-22:00",
      "thursday":"07:00-22:00",
      "friday":"07:00-22:00",
      "saturday":"07:00-22:00",
      "sunday":"07:00-22:00",
      "area":"08:00-22:00",
      "areaManager":"1",
      "address":"319 Newfoundland Way, ",
      "town":"Bristol",
      "county":"BS20 7QH",
      "postcode":"01275 848953",
      "telephone":"0391@southerncoops.co.uk",
      "email":"51.4911018",
      "latitude":-2.7567781,
      "longitude":"No",
      "carPark":"https://mostlane.sharepoint.com/Mostlane%20Shared%20Documents/Forms/AllItems.aspx?id=%2FMostlane%20Shared%20Documents%2FMostlane%20Construction%2FTSC%20Compliance%2FRetail%2F391%20Portishead%20Port%20Marine"
   },
   "5000128092306":{
      "branchCode":"5000128092306",
      "storeName":"70",
      "monday":"Bristol, Wells Road ",
      "tuesday":"07:00-22:00",
      "wednesday":"07:00-22:00",
      "thursday":"07:00-22:00",
      "friday":"07:00-22:00",
      "saturday":"07:00-22:00",
      "sunday":"07:00-22:00",
      "area":"07:00-22:00",
      "areaManager":"2",
      "address":"174-178 Wells Road",
      "town":"Somerset",
      "county":"BS4 2AL",
      "postcode":"01179 711591",
      "telephone":"0070@southerncoops.co.uk",
      "email":"51.4399951",
      "latitude":-2.5734669,
      "longitude":"No",
      "carPark":"https://mostlane.sharepoint.com/Mostlane%20Shared%20Documents/Forms/AllItems.aspx?id=%2FMostlane%20Shared%20Documents%2FMostlane%20Construction%2FTSC%20Compliance%2FRetail%2F70%20Bristol%20Wells%20Road%20"
   },
   "5000128091938":{
      "branchCode":"5000128091938",
      "storeName":"225",
      "monday":"Bristol, Redcliffe Street",
      "tuesday":"07:00-22:00",
      "wednesday":"07:00-22:00",
      "thursday":"07:00-22:00",
      "friday":"07:00-22:00",
      "saturday":"07:00-22:00",
      "sunday":"07:00-22:00",
      "area":"07:00-22:00",
      "areaManager":"2",
      "address":"The Square",
      "town":"Bristol",
      "county":"BS1 6LT",
      "postcode":"01179 450018",
      "telephone":"0225@southerncoops.co.uk",
      "email":"51.4505226",
      "latitude":-2.590208,
      "longitude":"Yes",
      "carPark":"https://mostlane.sharepoint.com/Mostlane%20Shared%20Documents/Forms/AllItems.aspx?id=%2FMostlane%20Shared%20Documents%2FMostlane%20Construction%2FTSC%20Compliance%2FRetail%2F225%20Bristol%20Redcliffe%20Street"
   },
   "5000128092348":{
      "branchCode":"5000128092348",
      "storeName":"238",
      "monday":"Bedminster, North Street",
      "tuesday":"07:00-22:00",
      "wednesday":"07:00-22:00",
      "thursday":"07:00-22:00",
      "friday":"07:00-22:00",
      "saturday":"07:00-22:00",
      "sunday":"07:00-22:00",
      "area":"07:00-22:00",
      "areaManager":"2",
      "address":"206-208 North Street",
      "town":"Somerset",
      "county":"BS3 1EN",
      "postcode":"01179 639517",
      "telephone":"0238@southerncoops.co.uk",
      "email":"51.440571",
      "latitude":-2.610575,
      "longitude":"No",
      "carPark":"https://mostlane.sharepoint.com/Mostlane%20Shared%20Documents/Forms/AllItems.aspx?id=%2FMostlane%20Shared%20Documents%2FMostlane%20Construction%2FTSC%20Compliance%2FRetail%2F238%20Bedminster%20North%20Street"
   },
   "5000128092461":{
      "branchCode":"5000128092461",
      "storeName":"312",
      "monday":"Hanham, Memorial Road ",
      "tuesday":"06:30-22:00",
      "wednesday":"06:30-22:00",
      "thursday":"06:30-22:00",
      "friday":"06:30-22:00",
      "saturday":"06:30-22:00",
      "sunday":"06:30-22:00",
      "area":"06:30-22:00",
      "areaManager":"2",
      "address":"183 Memorial Road",
      "town":"Bristol",
      "county":"BS15 3LH",
      "postcode":"01179 672906",
      "telephone":"0312@southerncoops.co.uk",
      "email":"51.439999",
      "latitude":-2.5195434,
      "longitude":"No",
      "carPark":"https://mostlane.sharepoint.com/Mostlane%20Shared%20Documents/Forms/AllItems.aspx?id=%2FMostlane%20Shared%20Documents%2FMostlane%20Construction%2FTSC%20Compliance%2FRetail%2F312%20Hanham%20Memorial%20Road%20"
   },
   "5000128092487":{
      "branchCode":"5000128092487",
      "storeName":"313",
      "monday":"Pill, Baltic Place",
      "tuesday":"06:00-22:00",
      "wednesday":"06:00-22:00",
      "thursday":"06:00-22:00",
      "friday":"06:00-22:00",
      "saturday":"06:00-22:00",
      "sunday":"06:00-22:00",
      "area":"06:00-22:00",
      "areaManager":"2",
      "address":"1 - 2 Baltic Place ",
      "town":"Bristol ",
      "county":"BS20 0EJ ",
      "postcode":"01275 374846",
      "telephone":"0313@southerncoops.co.uk",
      "email":"51.4789505",
      "latitude":-2.68465209,
      "longitude":"No",
      "carPark":"https://mostlane.sharepoint.com/Mostlane%20Shared%20Documents/Forms/AllItems.aspx?id=%2FMostlane%20Shared%20Documents%2FMostlane%20Construction%2FTSC%20Compliance%2FRetail%2F313%20Pill%20Baltic%20Place"
   },
   "5000128092474":{
      "branchCode":"5000128092474",
      "storeName":"314",
      "monday":"Bristol, Ashley Down Road ",
      "tuesday":"07:00-22:30",
      "wednesday":"07:00-22:30",
      "thursday":"07:00-22:30",
      "friday":"07:00-22:30",
      "saturday":"07:00-22:30",
      "sunday":"07:00-22:30",
      "area":"07:00-22:30",
      "areaManager":"2",
      "address":"Ashley Down Road ",
      "town":"Bristol ",
      "county":"BS7 9BU ",
      "postcode":"01179 428761",
      "telephone":"0314@southerncoops.co.uk",
      "email":"51.4773662",
      "latitude":-2.5800436,
      "longitude":"No",
      "carPark":"https://mostlane.sharepoint.com/Mostlane%20Shared%20Documents/Forms/AllItems.aspx?id=%2FMostlane%20Shared%20Documents%2FMostlane%20Construction%2FTSC%20Compliance%2FRetail%2F314%20Bristol%20Ashley%20Down%20Road%20"
   },
   "5000128092607":{
      "branchCode":"5000128092607",
      "storeName":"322",
      "monday":"Keynsham, Queens Road ",
      "tuesday":"06:30-22:30",
      "wednesday":"06:30-22:30",
      "thursday":"06:30-22:30",
      "friday":"06:30-22:30",
      "saturday":"06:30-22:30",
      "sunday":"06:30-22:30",
      "area":"06:30-22:30",
      "areaManager":"2",
      "address":"61  Queens Road ",
      "town":"Bristol",
      "county":"BS31 2NW",
      "postcode":"01179 860079",
      "telephone":"0322@southerncoops.co.uk",
      "email":"51.4089565",
      "latitude":-2.5071952,
      "longitude":"Yes",
      "carPark":"https://mostlane.sharepoint.com/Mostlane%20Shared%20Documents/Forms/AllItems.aspx?id=%2FMostlane%20Shared%20Documents%2FMostlane%20Construction%2FTSC%20Compliance%2FRetail%2F322%20Keynsham%20Queens%20Road%20"
   },
   "5000128092568":{
      "branchCode":"5000128092568",
      "storeName":"327",
      "monday":"Bristol, Two Mile Hill Road ",
      "tuesday":"06:30-22:00",
      "wednesday":"06:30-22:00",
      "thursday":"06:30-22:00",
      "friday":"06:30-22:00",
      "saturday":"06:30-22:00",
      "sunday":"06:30-22:00",
      "area":"06:30-22:00",
      "areaManager":"2",
      "address":"47 Two Mile Hill Road ",
      "town":"Bristol",
      "county":"BS15 1BS ",
      "postcode":"01179 678771",
      "telephone":"0327@southerncoops.co.uk",
      "email":"51.4618871",
      "latitude":-2.5268861,
      "longitude":"Yes",
      "carPark":"https://mostlane.sharepoint.com/Mostlane%20Shared%20Documents/Forms/AllItems.aspx?id=%2FMostlane%20Shared%20Documents%2FMostlane%20Construction%2FTSC%20Compliance%2FRetail%2F327%20Bristol%20Two%20Mile%20Hill%20Road%20"
   },
   "5000128092665":{
      "branchCode":"5000128092665",
      "storeName":"333",
      "monday":"Bristol, Church Road ",
      "tuesday":"07:00-22:00",
      "wednesday":"07:00-22:00",
      "thursday":"07:00-22:00",
      "friday":"07:00-22:00",
      "saturday":"07:00-22:00",
      "sunday":"07:00-22:00",
      "area":"07:00-22:00",
      "areaManager":"2",
      "address":"345-347 Church Road ",
      "town":"Bristol",
      "county":"BS5 8AA ",
      "postcode":"01179 558959",
      "telephone":"0333@southerncoops.co.uk",
      "email":"51.4595572",
      "latitude":-2.5480503,
      "longitude":"No",
      "carPark":"https://mostlane.sharepoint.com/Mostlane%20Shared%20Documents/Forms/AllItems.aspx?id=%2FMostlane%20Shared%20Documents%2FMostlane%20Construction%2FTSC%20Compliance%2FRetail%2F333%20Bristol%20Church%20Road%20"
   },
   "5000128092678":{
      "branchCode":"5000128092678",
      "storeName":"337",
      "monday":"Bristol, School Road ",
      "tuesday":"07:00-22:00",
      "wednesday":"07:00-22:00",
      "thursday":"07:00-22:00",
      "friday":"07:00-22:00",
      "saturday":"07:00-22:00",
      "sunday":"07:00-22:00",
      "area":"07:00-22:00",
      "areaManager":"2",
      "address":"School Road ",
      "town":"Bristol",
      "county":"BS30 8EP ",
      "postcode":"01179 672703",
      "telephone":"0337@southerncoops.co.uk",
      "email":"51.4460075",
      "latitude":-2.4837576,
      "longitude":"Yes",
      "carPark":"https://mostlane.sharepoint.com/Mostlane%20Shared%20Documents/Forms/AllItems.aspx?id=%2FMostlane%20Shared%20Documents%2FMostlane%20Construction%2FTSC%20Compliance%2FRetail%2F337%20Bristol%20School%20Road%20"
   },
   "5000128092924":{
      "branchCode":"5000128092924",
      "storeName":"371",
      "monday":"Bristol, Long Down Avenue ",
      "tuesday":"07:00-22:00",
      "wednesday":"07:00-22:00",
      "thursday":"07:00-22:00",
      "friday":"07:00-22:00",
      "saturday":"07:00-22:00",
      "sunday":"07:00-22:00",
      "area":"07:00-22:00",
      "areaManager":"2",
      "address":"Unit 4 Long Down Avenue",
      "town":"Bristol",
      "county":"BS16 1GU",
      "postcode":"01179 691959",
      "telephone":"0371@southerncoops.co.uk",
      "email":"51.4972293",
      "latitude":-2.5596771,
      "longitude":"Yes",
      "carPark":"https://mostlane.sharepoint.com/Mostlane%20Shared%20Documents/Forms/AllItems.aspx?id=%2FMostlane%20Shared%20Documents%2FMostlane%20Construction%2FTSC%20Compliance%2FRetail%2F371%20Bristol%20Long%20Down%20Avenue%20"
   },
   "5000128091925":{
      "branchCode":"5000128091925",
      "storeName":"224",
      "monday":"Corsham, Macie Drive",
      "tuesday":"07:00-22:00",
      "wednesday":"07:00-22:00",
      "thursday":"07:00-22:00",
      "friday":"07:00-22:00",
      "saturday":"07:00-22:00",
      "sunday":"07:00-22:00",
      "area":"07:00-22:00",
      "areaManager":"2",
      "address":"Macie Drive",
      "town":"Wiltshire",
      "county":"SN13 9EJ",
      "postcode":"01225 819945",
      "telephone":"0224@southerncoops.co.uk",
      "email":"51.4286416",
      "latitude":-2.2004749,
      "longitude":"Yes",
      "carPark":"https://mostlane.sharepoint.com/Mostlane%20Shared%20Documents/Forms/AllItems.aspx?id=%2FMostlane%20Shared%20Documents%2FMostlane%20Construction%2FTSC%20Compliance%2FRetail%2F224%20Corsham%20Macie%20Drive"
   },
   "5000128092209":{
      "branchCode":"5000128092209",
      "storeName":"249",
      "monday":"Bradford On Avon, Winsley Road",
      "tuesday":"06:00-22:00",
      "wednesday":"06:00-22:00",
      "thursday":"06:00-22:00",
      "friday":"06:00-22:00",
      "saturday":"06:00-22:00",
      "sunday":"06:00-22:00",
      "area":"06:00-22:00",
      "areaManager":"2",
      "address":"223 Winsley Road",
      "town":"Wiltshire",
      "county":"BA15 1QT",
      "postcode":"01225 867182",
      "telephone":"0249@southerncoops.co.uk",
      "email":"51.3503387",
      "latitude":-2.2552397,
      "longitude":"Yes",
      "carPark":"https://mostlane.sharepoint.com/Mostlane%20Shared%20Documents/Forms/AllItems.aspx?id=%2FMostlane%20Shared%20Documents%2FMostlane%20Construction%2FTSC%20Compliance%2FRetail%2F249%20Bradford%20On%20Avon%20Winsley%20Road"
   },
   "5000128093091":{
      "branchCode":"5000128093091",
      "storeName":"385",
      "monday":"Bath, Widcombe Hill",
      "tuesday":"07:00-22:30",
      "wednesday":"07:00-22:30",
      "thursday":"07:00-22:30",
      "friday":"07:00-22:30",
      "saturday":"07:00-22:30",
      "sunday":"07:00-22:30",
      "area":"07:00-22:30",
      "areaManager":"2",
      "address":"Ground Floor Retail Unit,",
      "town":"Somerset",
      "county":"BA2 6AA",
      "postcode":"01225 469320",
      "telephone":"0385@southerncoops.co.uk",
      "email":"51.376517",
      "latitude":-2.353033,
      "longitude":"No",
      "carPark":"https://mostlane.sharepoint.com/Mostlane%20Shared%20Documents/Forms/AllItems.aspx?id=%2FMostlane%20Shared%20Documents%2FMostlane%20Construction%2FTSC%20Compliance%2FRetail%2F385%20Bath%20Widcombe%20Hill"
   },
   "5000128090405":{
      "branchCode":"5000128090405",
      "storeName":"75",
      "monday":"Mere, The Square",
      "tuesday":"07:00-22:00",
      "wednesday":"07:00-22:00",
      "thursday":"07:00-22:00",
      "friday":"07:00-22:00",
      "saturday":"07:00-22:00",
      "sunday":"07:00-22:00",
      "area":"07:00-22:00",
      "areaManager":"3",
      "address":"Queen Victoria Memorial Hall",
      "town":"Wiltshire",
      "county":"BA12 6DJ",
      "postcode":"01747 861203",
      "telephone":"0075@southerncoops.co.uk",
      "email":"51.0901218",
      "latitude":-2.2689797,
      "longitude":"No",
      "carPark":"https://mostlane.sharepoint.com/Mostlane%20Shared%20Documents/Forms/AllItems.aspx?id=%2FMostlane%20Shared%20Documents%2FMostlane%20Construction%2FTSC%20Compliance%2FRetail%2F75%20Mere%20The%20Square"
   },
   "5000128092335":{
      "branchCode":"5000128092335",
      "storeName":"170",
      "monday":"Shrewton, High Street",
      "tuesday":"07:00-22:00",
      "wednesday":"07:00-22:00",
      "thursday":"07:00-22:00",
      "friday":"07:00-22:00",
      "saturday":"07:00-22:00",
      "sunday":"07:00-22:00",
      "area":"07:00-22:00",
      "areaManager":"3",
      "address":"High Street",
      "town":"Wiltshire",
      "county":"SP3 4BU",
      "postcode":"01980 621813",
      "telephone":"0170@southerncoops.co.uk",
      "email":"51.1944084",
      "latitude":-1.9030477,
      "longitude":"No",
      "carPark":"https://mostlane.sharepoint.com/Mostlane%20Shared%20Documents/Forms/AllItems.aspx?id=%2FMostlane%20Shared%20Documents%2FMostlane%20Construction%2FTSC%20Compliance%2FRetail%2F170%20Shrewton%20High%20Street"
   },
   "5000128092254":{
      "branchCode":"5000128092254",
      "storeName":"193",
      "monday":"Shaftesbury, Beaufoy Close",
      "tuesday":"07:00-22:00",
      "wednesday":"07:00-22:00",
      "thursday":"07:00-22:00",
      "friday":"07:00-22:00",
      "saturday":"07:00-22:00",
      "sunday":"07:00-22:00",
      "area":"07:00-22:00",
      "areaManager":"3",
      "address":"Beaufoy Close",
      "town":"Dorset",
      "county":"SP7 8PT",
      "postcode":"01747 858393",
      "telephone":"0193@southerncoops.co.uk",
      "email":"51.0080161",
      "latitude":-2.185699,
      "longitude":"Yes",
      "carPark":"https://mostlane.sharepoint.com/Mostlane%20Shared%20Documents/Forms/AllItems.aspx?id=%2FMostlane%20Shared%20Documents%2FMostlane%20Construction%2FTSC%20Compliance%2FRetail%2F193%20Shaftesbury%20Beaufoy%20Close"
   },
   "5000128091828":{
      "branchCode":"5000128091828",
      "storeName":"212",
      "monday":"Salisbury, Kelsey Road",
      "tuesday":"06:30-22:00",
      "wednesday":"06:30-22:00",
      "thursday":"06:30-22:00",
      "friday":"06:30-22:00",
      "saturday":"06:30-22:00",
      "sunday":"06:30-22:00",
      "area":"06:30-22:00",
      "areaManager":"3",
      "address":"10 Kelsey Road",
      "town":"Wiltshire",
      "county":"SP1 1JP",
      "postcode":"01722 331367",
      "telephone":"0212@southerncoops.co.uk",
      "email":"51.071028",
      "latitude":-1.7862683,
      "longitude":"No",
      "carPark":"https://mostlane.sharepoint.com/Mostlane%20Shared%20Documents/Forms/AllItems.aspx?id=%2FMostlane%20Shared%20Documents%2FMostlane%20Construction%2FTSC%20Compliance%2FRetail%2F212%20Salisbury%20Kelsey%20Road"
   },
   "5000128091844":{
      "branchCode":"5000128091844",
      "storeName":"240",
      "monday":"Sturminster, Station Road",
      "tuesday":"07:00-22:00",
      "wednesday":"07:00-22:00",
      "thursday":"07:00-22:00",
      "friday":"07:00-22:00",
      "saturday":"07:00-22:00",
      "sunday":"07:00-22:00",
      "area":"10:00-16:00",
      "areaManager":"3",
      "address":"Lower Market Way",
      "town":"Dorset",
      "county":"DT10 1BB",
      "postcode":"01258 473130",
      "telephone":"0240@southerncoops.co.uk",
      "email":"50.9276023",
      "latitude":-2.3039951,
      "longitude":"Yes",
      "carPark":"https://mostlane.sharepoint.com/Mostlane%20Shared%20Documents/Forms/AllItems.aspx?id=%2FMostlane%20Shared%20Documents%2FMostlane%20Construction%2FTSC%20Compliance%2FRetail%2F240%20Sturminster%20Station%20Road"
   },
   "5000128092115":{
      "branchCode":"5000128092115",
      "storeName":"248",
      "monday":"Blandford, Salisbury Road",
      "tuesday":"07:00-22:00",
      "wednesday":"07:00-22:00",
      "thursday":"07:00-22:00",
      "friday":"07:00-22:00",
      "saturday":"07:00-22:00",
      "sunday":"07:00-22:00",
      "area":"07:00-22:00",
      "areaManager":"3",
      "address":"Unit 2, Salisbury Road",
      "town":"Dorset",
      "county":"DT11 7QG",
      "postcode":"01258 451384",
      "telephone":"0248@southerncoops.co.uk",
      "email":"50.8601499",
      "latitude":-2.1622902,
      "longitude":"Yes",
      "carPark":"https://mostlane.sharepoint.com/Mostlane%20Shared%20Documents/Forms/AllItems.aspx?id=%2FMostlane%20Shared%20Documents%2FMostlane%20Construction%2FTSC%20Compliance%2FRetail%2F248%20Blandford%20Salisbury%20Road"
   },
   "5000128093046":{
      "branchCode":"5000128093046",
      "storeName":"359",
      "monday":"Frome, Nunney Road",
      "tuesday":"06:30-22:00",
      "wednesday":"06:30-22:00",
      "thursday":"06:30-22:00",
      "friday":"06:30-22:00",
      "saturday":"06:30-22:00",
      "sunday":"06:30-22:00",
      "area":"06:30-22:00",
      "areaManager":"3",
      "address":"1a Nunney Road",
      "town":"Somerset",
      "county":"BA11 4LA",
      "postcode":"01373 467678",
      "telephone":"0359@southerncoops.co.uk",
      "email":"51.230714",
      "latitude":-2.328026,
      "longitude":"Yes",
      "carPark":"https://mostlane.sharepoint.com/Mostlane%20Shared%20Documents/Forms/AllItems.aspx?id=%2FMostlane%20Shared%20Documents%2FMostlane%20Construction%2FTSC%20Compliance%2FRetail%2F359%20Frome%20Nunney%20Road"
   },
   "5000128092911":{
      "branchCode":"5000128092911",
      "storeName":"367",
      "monday":"Yeovil, Mudford Road",
      "tuesday":"06:00-22:00",
      "wednesday":"06:00-22:00",
      "thursday":"06:00-22:00",
      "friday":"06:00-22:00",
      "saturday":"06:00-22:00",
      "sunday":"06:00-22:00",
      "area":"06:00-22:00",
      "areaManager":"3",
      "address":"Mudford Road",
      "town":"Somerset",
      "county":"BA21 4NP",
      "postcode":"01935 422144",
      "telephone":"0367@southerncoops.co.uk",
      "email":"50.9573793",
      "latitude":-2.6297462,
      "longitude":"Yes",
      "carPark":"https://mostlane.sharepoint.com/Mostlane%20Shared%20Documents/Forms/AllItems.aspx?id=%2FMostlane%20Shared%20Documents%2FMostlane%20Construction%2FTSC%20Compliance%2FRetail%2F367%20Yeovil%20Mudford%20Road"
   },
   "5000128093266":{
      "branchCode":"5000128093266",
      "storeName":"403",
      "monday":"Old Sarum, Crosier Close",
      "tuesday":"06:30-22:00",
      "wednesday":"06:30-22:00",
      "thursday":"06:30-22:00",
      "friday":"06:30-22:00",
      "saturday":"06:30-22:00",
      "sunday":"06:30-22:00",
      "area":"06:30-22:00",
      "areaManager":"3",
      "address":"1 Crosier Close,",
      "town":"Wiltshire",
      "county":"SP4 6GX",
      "postcode":"01722 335316",
      "telephone":"0403@southerncoops.co.uk",
      "email":"51.1009813",
      "latitude":-1.7863961,
      "longitude":"Yes",
      "carPark":"https://mostlane.sharepoint.com/Mostlane%20Shared%20Documents/Forms/AllItems.aspx?id=%2FMostlane%20Shared%20Documents%2FMostlane%20Construction%2FTSC%20Compliance%2FRetail%2F403%20Old%20Sarum%20Crosier%20Close"
   },
   "5000128092322":{
      "branchCode":"5000128092322",
      "storeName":"148",
      "monday":"Verwood, Ringwood Road",
      "tuesday":"07:00-22:00",
      "wednesday":"07:00-22:00",
      "thursday":"07:00-22:00",
      "friday":"07:00-22:00",
      "saturday":"07:00-22:00",
      "sunday":"07:00-22:00",
      "area":"07:00-22:00",
      "areaManager":"3",
      "address":"Ringwood Road",
      "town":"Dorset",
      "county":"BH31 7AL",
      "postcode":"01202 823901",
      "telephone":"0148@southerncoops.co.uk",
      "email":"50.8786257",
      "latitude":-1.8652549,
      "longitude":"Yes",
      "carPark":"https://mostlane.sharepoint.com/Mostlane%20Shared%20Documents/Forms/AllItems.aspx?id=%2FMostlane%20Shared%20Documents%2FMostlane%20Construction%2FTSC%20Compliance%2FRetail%2F148%20Verwood%20Ringwood%20Road"
   },
   "5000128092241":{
      "branchCode":"5000128092241",
      "storeName":"192",
      "monday":"Portland, Weston Road",
      "tuesday":"06:30-22:00",
      "wednesday":"06:30-22:00",
      "thursday":"06:30-22:00",
      "friday":"06:30-22:00",
      "saturday":"06:30-22:00",
      "sunday":"06:30-22:00",
      "area":"06:30-22:00",
      "areaManager":"3",
      "address":"11B Weston Road",
      "town":"Dorset",
      "county":"DT5 2BY",
      "postcode":"01305 824759",
      "telephone":"0192@southerncoops.co.uk",
      "email":"50.5401266",
      "latitude":-2.4440158,
      "longitude":"Yes",
      "carPark":"https://mostlane.sharepoint.com/Mostlane%20Shared%20Documents/Forms/AllItems.aspx?id=%2FMostlane%20Shared%20Documents%2FMostlane%20Construction%2FTSC%20Compliance%2FRetail%2F192%20Portland%20Weston%20Road"
   },
   "5000128091815":{
      "branchCode":"5000128091815",
      "storeName":"216",
      "monday":"Alderholt, Ringwood Road",
      "tuesday":"07:00-22:00",
      "wednesday":"07:00-22:00",
      "thursday":"07:00-22:00",
      "friday":"07:00-22:00",
      "saturday":"07:00-22:00",
      "sunday":"07:00-22:00",
      "area":"07:00-22:00",
      "areaManager":"3",
      "address":"1 Ringwood Road",
      "town":"Hampshire",
      "county":"SP6 3DF",
      "postcode":"01425 655989",
      "telephone":"0216@southerncoops.co.uk",
      "email":"50.911412",
      "latitude":-1.837221,
      "longitude":"Yes",
      "carPark":"https://mostlane.sharepoint.com/Mostlane%20Shared%20Documents/Forms/AllItems.aspx?id=%2FMostlane%20Shared%20Documents%2FMostlane%20Construction%2FTSC%20Compliance%2FRetail%2F216%20Alderholt%20Ringwood%20Road"
   },
   "5000128093020":{
      "branchCode":"5000128093020",
      "storeName":"380",
      "monday":"Wimborne, Wimborne Rd (PFS)",
      "tuesday":"07:00-22:00",
      "wednesday":"07:00-22:00",
      "thursday":"07:00-22:00",
      "friday":"07:00-22:00",
      "saturday":"07:00-22:00",
      "sunday":"07:00-22:00",
      "area":"07:00-22:00",
      "areaManager":"3",
      "address":"Wimborne Road",
      "town":"Dorset",
      "county":"BH21 1NW",
      "postcode":"01202 880459",
      "telephone":"0380@southerncoops.co.uk",
      "email":"50.80498",
      "latitude":-1.987979,
      "longitude":"Yes",
      "carPark":"https://mostlane.sharepoint.com/Mostlane%20Shared%20Documents/Forms/AllItems.aspx?id=%2FMostlane%20Shared%20Documents%2FMostlane%20Construction%2FTSC%20Compliance%2FRetail%2F380%20Wimborne%20Wimborne%20Rd%20%28PFS%29"
   },
   "5000128090874":{
      "branchCode":"5000128090874",
      "storeName":"409",
      "monday":"Weymouth, Chickerell Road",
      "tuesday":"06:30-22:00",
      "wednesday":"06:30-22:00",
      "thursday":"06:30-22:00",
      "friday":"06:30-22:00",
      "saturday":"06:30-22:00",
      "sunday":"06:30-22:00",
      "area":"06:30-22:00",
      "areaManager":"3",
      "address":"Chickerell Road,",
      "town":"Dorset",
      "county":"DT4 0RA",
      "postcode":"01305 773034",
      "telephone":"0409@southerncoops.co.uk",
      "email":"50.6090529",
      "latitude":-2.4797807,
      "longitude":"Yes",
      "carPark":"https://mostlane.sharepoint.com/Mostlane%20Shared%20Documents/Forms/AllItems.aspx?id=%2FMostlane%20Shared%20Documents%2FMostlane%20Construction%2FTSC%20Compliance%2FRetail%2F409%20Weymouth%20Chickerell%20Road"
   },
   "5000128092380":{
      "branchCode":"5000128092380",
      "storeName":"171",
      "monday":"Bournemouth, Belle Vue Road",
      "tuesday":"06:30-22:00",
      "wednesday":"06:30-22:00",
      "thursday":"06:30-22:00",
      "friday":"06:30-22:00",
      "saturday":"06:30-22:00",
      "sunday":"06:30-22:00",
      "area":"06:30-22:00",
      "areaManager":"4",
      "address":"143 Belle Vue Road",
      "town":"Dorset",
      "county":"BH6 3EN",
      "postcode":"01202 430338",
      "telephone":"0171@southerncoops.co.uk",
      "email":"50.7216685",
      "latitude":-1.7971618,
      "longitude":"Yes",
      "carPark":"https://mostlane.sharepoint.com/Mostlane%20Shared%20Documents/Forms/AllItems.aspx?id=%2FMostlane%20Shared%20Documents%2FMostlane%20Construction%2FTSC%20Compliance%2FRetail%2F171%20Bournemouth%20Belle%20Vue%20Road"
   },
   "5000128092173":{
      "branchCode":"5000128092173",
      "storeName":"173",
      "monday":"Poole, Tatnam Road",
      "tuesday":"07:00-22:00",
      "wednesday":"07:00-22:00",
      "thursday":"07:00-22:00",
      "friday":"07:00-22:00",
      "saturday":"07:00-22:00",
      "sunday":"07:00-22:00",
      "area":"07:00-22:00",
      "areaManager":"4",
      "address":"147 Wimborne Road",
      "town":"Dorset",
      "county":"BH15 2BS",
      "postcode":"01202 667279",
      "telephone":"0173@southerncoops.co.uk",
      "email":"50.7249021",
      "latitude":-1.9777811,
      "longitude":"Yes",
      "carPark":"https://mostlane.sharepoint.com/Mostlane%20Shared%20Documents/Forms/AllItems.aspx?id=%2FMostlane%20Shared%20Documents%2FMostlane%20Construction%2FTSC%20Compliance%2FRetail%2F173%20Poole%20Tatnam%20Road"
   },
   "5000128091886":{
      "branchCode":"5000128091886",
      "storeName":"217",
      "monday":"Bearwood, King John Avenue",
      "tuesday":"07:00-22:00",
      "wednesday":"07:00-22:00",
      "thursday":"07:00-22:00",
      "friday":"07:00-22:00",
      "saturday":"07:00-22:00",
      "sunday":"07:00-22:00",
      "area":"07:00-22:00",
      "areaManager":"4",
      "address":"King John Avenue",
      "town":"Dorset",
      "county":"BH11 9TN",
      "postcode":"01202 590328",
      "telephone":"0217@southerncoops.co.uk",
      "email":"50.7676308",
      "latitude":-1.9300794,
      "longitude":"Yes",
      "carPark":"https://mostlane.sharepoint.com/Mostlane%20Shared%20Documents/Forms/AllItems.aspx?id=%2FMostlane%20Shared%20Documents%2FMostlane%20Construction%2FTSC%20Compliance%2FRetail%2F217%20Bearwood%20King%20John%20Avenue"
   },
   "5000128090573":{
      "branchCode":"5000128090573",
      "storeName":"219",
      "monday":"Creekmoor, Northmead Drive",
      "tuesday":"06:30-22:00",
      "wednesday":"06:30-22:00",
      "thursday":"06:30-22:00",
      "friday":"06:30-22:00",
      "saturday":"06:30-22:00",
      "sunday":"06:30-22:00",
      "area":"06:30-22:00",
      "areaManager":"4",
      "address":"Northmead Drive",
      "town":"Dorset",
      "county":"BH17 7XZ",
      "postcode":"01202 657141",
      "telephone":"0219@southerncoops.co.uk",
      "email":"50.741389",
      "latitude":-2.0031185,
      "longitude":"Yes",
      "carPark":"https://mostlane.sharepoint.com/Mostlane%20Shared%20Documents/Forms/AllItems.aspx?id=%2FMostlane%20Shared%20Documents%2FMostlane%20Construction%2FTSC%20Compliance%2FRetail%2F219%20Creekmoor%20Northmead%20Drive"
   },
   "5000128092351":{
      "branchCode":"5000128092351",
      "storeName":"239",
      "monday":"Bournemouth, Castle Lane",
      "tuesday":"06:30-22:00",
      "wednesday":"06:30-22:00",
      "thursday":"06:30-22:00",
      "friday":"06:30-22:00",
      "saturday":"06:30-22:00",
      "sunday":"06:30-22:00",
      "area":"06:30-22:00",
      "areaManager":"4",
      "address":"235 Castle Lane",
      "town":"Dorset",
      "county":"BH9 3LD",
      "postcode":"01202 533538",
      "telephone":"0239@southerncoops.co.uk",
      "email":"50.7547864",
      "latitude":-1.8576666,
      "longitude":"Yes",
      "carPark":"https://mostlane.sharepoint.com/Mostlane%20Shared%20Documents/Forms/AllItems.aspx?id=%2FMostlane%20Shared%20Documents%2FMostlane%20Construction%2FTSC%20Compliance%2FRetail%2F239%20Bournemouth%20Castle%20Lane"
   },
   "5000128092403":{
      "branchCode":"5000128092403",
      "storeName":"303",
      "monday":"Bournemouth, Madeira Road",
      "tuesday":"07:00-22:00",
      "wednesday":"07:00-22:00",
      "thursday":"07:00-22:00",
      "friday":"07:00-22:00",
      "saturday":"07:00-22:00",
      "sunday":"07:00-22:00",
      "area":"07:00-22:00",
      "areaManager":"4",
      "address":"Madeira Road",
      "town":"Dorset",
      "county":"BH1 1QQ",
      "postcode":"01202 555129",
      "telephone":"0303@southerncoops.co.uk",
      "email":"50.72427",
      "latitude":-1.8679,
      "longitude":"Yes",
      "carPark":"https://mostlane.sharepoint.com/Mostlane%20Shared%20Documents/Forms/AllItems.aspx?id=%2FMostlane%20Shared%20Documents%2FMostlane%20Construction%2FTSC%20Compliance%2FRetail%2F303%20Bournemouth%20Madeira%20Road"
   },
   "5000128092885":{
      "branchCode":"5000128092885",
      "storeName":"332",
      "monday":"Bournemouth, East Howe Lane",
      "tuesday":"07:00-22:00",
      "wednesday":"07:00-22:00",
      "thursday":"07:00-22:00",
      "friday":"07:00-22:00",
      "saturday":"07:00-22:00",
      "sunday":"07:00-22:00",
      "area":"07:00-22:00",
      "areaManager":"4",
      "address":"270 Kinson Rd",
      "town":"Dorset",
      "county":"BH10 5JL",
      "postcode":"01202 579949",
      "telephone":"0332@southerncoops.co.uk",
      "email":"50.7588208",
      "latitude":-1.9002827,
      "longitude":"Yes",
      "carPark":"https://mostlane.sharepoint.com/Mostlane%20Shared%20Documents/Forms/AllItems.aspx?id=%2FMostlane%20Shared%20Documents%2FMostlane%20Construction%2FTSC%20Compliance%2FRetail%2F332%20Bournemouth%20East%20Howe%20Lane"
   },
   "5000128011141":{
      "branchCode":"5000128011141",
      "storeName":"362",
      "monday":"Poole, Ringwood Road ",
      "tuesday":"06:30-22:00",
      "wednesday":"06:30-22:00",
      "thursday":"06:30-22:00",
      "friday":"06:30-22:00",
      "saturday":"06:30-22:00",
      "sunday":"06:30-22:00",
      "area":"06:30-22:00",
      "areaManager":"4",
      "address":"25 Ringwood Road",
      "town":"Dorset ",
      "county":"BH14 0RF",
      "postcode":"01202 681787",
      "telephone":"0362@southerncoops.co.uk",
      "email":"50.7295336",
      "latitude":-1.9630839,
      "longitude":"Yes",
      "carPark":"https://mostlane.sharepoint.com/Mostlane%20Shared%20Documents/Forms/AllItems.aspx?id=%2FMostlane%20Shared%20Documents%2FMostlane%20Construction%2FTSC%20Compliance%2FRetail%2F362%20Poole%20Ringwood%20Road%20"
   },
   "5000128091873":{
      "branchCode":"5000128091873",
      "storeName":"26",
      "monday":"Southampton, High Street",
      "tuesday":"07:00-22:00",
      "wednesday":"07:00-22:00",
      "thursday":"07:00-22:00",
      "friday":"07:00-22:00",
      "saturday":"07:00-22:00",
      "sunday":"07:00-22:00",
      "area":"07:00-22:00",
      "areaManager":"4",
      "address":"117 High Street",
      "town":"Hampshire",
      "county":"SO14 2EA",
      "postcode":"02380 225539",
      "telephone":"0026@southerncoops.co.uk",
      "email":"50.8980998",
      "latitude":-1.404152,
      "longitude":"No",
      "carPark":"https://mostlane.sharepoint.com/Mostlane%20Shared%20Documents/Forms/AllItems.aspx?id=%2FMostlane%20Shared%20Documents%2FMostlane%20Construction%2FTSC%20Compliance%2FRetail%2F26%20Southampton%20High%20Street"
   },
   "5000128090939":{
      "branchCode":"5000128090939",
      "storeName":"81",
      "monday":"Milford on Sea, High Street",
      "tuesday":"07:00-22:00",
      "wednesday":"07:00-22:00",
      "thursday":"07:00-22:00",
      "friday":"07:00-22:00",
      "saturday":"07:00-22:00",
      "sunday":"07:00-22:00",
      "area":"07:00-22:00",
      "areaManager":"4",
      "address":"45 High Street",
      "town":"Hampshire",
      "county":"SO41 0QG",
      "postcode":"01590 643218",
      "telephone":"0081@southerncoops.co.uk",
      "email":"50.7255184",
      "latitude":-1.5885471,
      "longitude":"No",
      "carPark":"https://mostlane.sharepoint.com/Mostlane%20Shared%20Documents/Forms/AllItems.aspx?id=%2FMostlane%20Shared%20Documents%2FMostlane%20Construction%2FTSC%20Compliance%2FRetail%2F81%20Milford%20on%20Sea%20High%20Street"
   },
   "5000128092898":{
      "branchCode":"5000128092898",
      "storeName":"366",
      "monday":"Southampton, Commercial Road",
      "tuesday":"07:00-22:00",
      "wednesday":"07:00-22:00",
      "thursday":"07:00-22:00",
      "friday":"07:00-22:00",
      "saturday":"07:00-22:00",
      "sunday":"07:00-22:00",
      "area":"07:00-22:00",
      "areaManager":"4",
      "address":"Mayflower Halls",
      "town":"Hampshire ",
      "county":"SO15 1DP",
      "postcode":"02380 232549",
      "telephone":"0366@southerncoops.co.uk",
      "email":"50.90878",
      "latitude":1.40902,
      "longitude":"No",
      "carPark":"https://mostlane.sharepoint.com/Mostlane%20Shared%20Documents/Forms/AllItems.aspx?id=%2FMostlane%20Shared%20Documents%2FMostlane%20Construction%2FTSC%20Compliance%2FRetail%2F366%20Southampton%20Commercial%20Road"
   },
   "5000128093127":{
      "branchCode":"5000128093127",
      "storeName":"393",
      "monday":"Holbury, Long Lane",
      "tuesday":"06:00-22:00",
      "wednesday":"06:00-22:00",
      "thursday":"06:00-22:00",
      "friday":"06:00-22:00",
      "saturday":"06:00-22:00",
      "sunday":"06:00-22:00",
      "area":"06:00-22:00",
      "areaManager":"4",
      "address":"63 Long Lane,",
      "town":"Hampshire",
      "county":"SO45 2LG",
      "postcode":"02380 893471",
      "telephone":"0393@southerncoops.co.uk",
      "email":"50.831756",
      "latitude":-1.380511,
      "longitude":"Yes",
      "carPark":"https://mostlane.sharepoint.com/Mostlane%20Shared%20Documents/Forms/AllItems.aspx?id=%2FMostlane%20Shared%20Documents%2FMostlane%20Construction%2FTSC%20Compliance%2FRetail%2F393%20Holbury%20Long%20Lane"
   },
   "5000128093114":{
      "branchCode":"5000128093114",
      "storeName":"396",
      "monday":"Southampton, Archers Road",
      "tuesday":"07:00-22:00",
      "wednesday":"07:00-22:00",
      "thursday":"07:00-22:00",
      "friday":"07:00-22:00",
      "saturday":"07:00-22:00",
      "sunday":"07:00-22:00",
      "area":"07:00-22:00",
      "areaManager":"4",
      "address":"32, Archers Road",
      "town":"Hampshire",
      "county":"SO15 2LT",
      "postcode":"02380 234694",
      "telephone":"0396@southerncoops.co.uk",
      "email":"50.9163687",
      "latitude":-1.4089733,
      "longitude":"Yes",
      "carPark":"https://mostlane.sharepoint.com/Mostlane%20Shared%20Documents/Forms/AllItems.aspx?id=%2FMostlane%20Shared%20Documents%2FMostlane%20Construction%2FTSC%20Compliance%2FRetail%2F396%20Southampton%20Archers%20Road"
   },
   "5000128090764":{
      "branchCode":"5000128090764",
      "storeName":"411",
      "monday":"Lyndhurst, High Street",
      "tuesday":"07:00-22:00",
      "wednesday":"07:00-22:00",
      "thursday":"07:00-22:00",
      "friday":"07:00-22:00",
      "saturday":"07:00-22:00",
      "sunday":"07:00-22:00",
      "area":"07:00-22:00",
      "areaManager":"4",
      "address":"32, High Street",
      "town":"Hampshire",
      "county":"SO43 7BG",
      "postcode":"02380 282159",
      "telephone":"0411@southerncoops.co.uk",
      "email":"50.8725186",
      "latitude":-1.5756786,
      "longitude":"Yes",
      "carPark":"https://mostlane.sharepoint.com/Mostlane%20Shared%20Documents/Forms/AllItems.aspx?id=%2FMostlane%20Shared%20Documents%2FMostlane%20Construction%2FTSC%20Compliance%2FRetail%2F411%20Lyndhurst%20High%20Street"
   },
   "5000128091459":{
      "branchCode":"5000128091459",
      "storeName":"107",
      "monday":"Lambourn, High Street",
      "tuesday":"06:30-22:00",
      "wednesday":"06:30-22:00",
      "thursday":"06:30-22:00",
      "friday":"06:30-22:00",
      "saturday":"06:30-22:00",
      "sunday":"06:30-22:00",
      "area":"06:30-22:00",
      "areaManager":"5",
      "address":"4 High Street",
      "town":"Berkshire",
      "county":"RG17 8XL",
      "postcode":"01488 73597",
      "telephone":"0107@southerncoops.co.uk",
      "email":"51.4156299",
      "latitude":-1.515376,
      "longitude":"Yes",
      "carPark":"https://mostlane.sharepoint.com/Mostlane%20Shared%20Documents/Forms/AllItems.aspx?id=%2FMostlane%20Shared%20Documents%2FMostlane%20Construction%2FTSC%20Compliance%2FRetail%2F107%20Lambourn%20High%20Street"
   },
   "5000128093101":{
      "branchCode":"5000128093101",
      "storeName":"427",
      "monday":"Basingstoke, Wallingford Road",
      "tuesday":"07:00-22:00",
      "wednesday":"07:00-22:00",
      "thursday":"07:00-22:00",
      "friday":"07:00-22:00",
      "saturday":"07:00-22:00",
      "sunday":"07:00-22:00",
      "area":"07:00-22:00",
      "areaManager":"5",
      "address":"2 Wallingford Road",
      "town":"Hampshire",
      "county":"RG24 9QD",
      "postcode":"01256 588400",
      "telephone":"0427@southerncoops.co.uk",
      "email":"51.28734",
      "latitude":-1.09813,
      "longitude":"Yes",
      "carPark":"https://mostlane.sharepoint.com/Mostlane%20Shared%20Documents/Forms/AllItems.aspx?id=%2FMostlane%20Shared%20Documents%2FMostlane%20Construction%2FTSC%20Compliance%2FRetail%2F427%20Basingstoke%20Wallingford%20Road"
   },
   "5000128091653":{
      "branchCode":"5000128091653",
      "storeName":"95",
      "monday":"Beggarwood, Broadmere Road",
      "tuesday":"07:00-22:00",
      "wednesday":"07:00-22:00",
      "thursday":"07:00-22:00",
      "friday":"07:00-22:00",
      "saturday":"07:00-22:00",
      "sunday":"07:00-22:00",
      "area":"07:00-22:00",
      "areaManager":"5",
      "address":"57 - 58 Broadmere Road",
      "town":"Hampshire",
      "county":"RG22 4AQ",
      "postcode":"01256 398076",
      "telephone":"0095@southerncoops.co.uk",
      "email":"51.2295608",
      "latitude":-1.142221,
      "longitude":"Yes",
      "carPark":"https://mostlane.sharepoint.com/Mostlane%20Shared%20Documents/Forms/AllItems.aspx?id=%2FMostlane%20Shared%20Documents%2FMostlane%20Construction%2FTSC%20Compliance%2FRetail%2F95%20Beggarwood%20Broadmere%20Road"
   },
   "5000128090256":{
      "branchCode":"5000128090256",
      "storeName":"103",
      "monday":"Basingstoke, Kings Road",
      "tuesday":"06:30-22:00",
      "wednesday":"06:30-22:00",
      "thursday":"06:30-22:00",
      "friday":"06:30-22:00",
      "saturday":"06:30-22:00",
      "sunday":"06:30-22:00",
      "area":"06:30-22:00",
      "areaManager":"5",
      "address":"37 - 39 Kings Road",
      "town":"Hampshire",
      "county":"RG22 6DJ",
      "postcode":"01256 322707",
      "telephone":"0103@southerncoops.co.uk",
      "email":"51.2570771",
      "latitude":-1.1104692,
      "longitude":"No",
      "carPark":"https://mostlane.sharepoint.com/Mostlane%20Shared%20Documents/Forms/AllItems.aspx?id=%2FMostlane%20Shared%20Documents%2FMostlane%20Construction%2FTSC%20Compliance%2FRetail%2F103%20Basingstoke%20Kings%20Road"
   },
   "5000128090269":{
      "branchCode":"5000128090269",
      "storeName":"106",
      "monday":"Tadley, Franklin Avenue",
      "tuesday":"06:30-22:00",
      "wednesday":"06:30-22:00",
      "thursday":"06:30-22:00",
      "friday":"06:30-22:00",
      "saturday":"06:30-22:00",
      "sunday":"06:30-22:00",
      "area":"06:30-22:00",
      "areaManager":"5",
      "address":"98 Franklin Avenue",
      "town":"Hampshire",
      "county":"RG26 4EU",
      "postcode":"01189 817843",
      "telephone":"0106@southerncoops.co.uk",
      "email":"51.3570766",
      "latitude":-1.1520684,
      "longitude":"Yes",
      "carPark":"https://mostlane.sharepoint.com/Mostlane%20Shared%20Documents/Forms/AllItems.aspx?id=%2FMostlane%20Shared%20Documents%2FMostlane%20Construction%2FTSC%20Compliance%2FRetail%2F106%20Tadley%20Franklin%20Avenue"
   },
   "5000128090832":{
      "branchCode":"5000128090832",
      "storeName":"119",
      "monday":"Stockbridge, High Street",
      "tuesday":"07:00-22:00",
      "wednesday":"07:00-22:00",
      "thursday":"07:00-22:00",
      "friday":"07:00-22:00",
      "saturday":"07:00-22:00",
      "sunday":"07:00-22:00",
      "area":"07:00-22:00",
      "areaManager":"5",
      "address":"High Street",
      "town":"Hampshire",
      "county":"SO20 6EU",
      "postcode":"01264 810519",
      "telephone":"0119@southerncoops.co.uk",
      "email":"51.1140466",
      "latitude":-1.4905529,
      "longitude":"No",
      "carPark":"https://mostlane.sharepoint.com/Mostlane%20Shared%20Documents/Forms/AllItems.aspx?id=%2FMostlane%20Shared%20Documents%2FMostlane%20Construction%2FTSC%20Compliance%2FRetail%2F119%20Stockbridge%20High%20Street"
   },
   "5000128090243":{
      "branchCode":"5000128090243",
      "storeName":"121",
      "monday":"Overton, Winchester Street",
      "tuesday":"06:30-22:00",
      "wednesday":"06:30-22:00",
      "thursday":"06:30-22:00",
      "friday":"06:30-22:00",
      "saturday":"06:30-22:00",
      "sunday":"06:30-22:00",
      "area":"06:30-22:00",
      "areaManager":"5",
      "address":"15 - 17 Winchester St",
      "town":"Hampshire",
      "county":"RG25 3HR",
      "postcode":"01256 770218",
      "telephone":"0121@southerncoops.co.uk",
      "email":"51.2433777",
      "latitude":-1.2628551,
      "longitude":"No",
      "carPark":"https://mostlane.sharepoint.com/Mostlane%20Shared%20Documents/Forms/AllItems.aspx?id=%2FMostlane%20Shared%20Documents%2FMostlane%20Construction%2FTSC%20Compliance%2FRetail%2F121%20Overton%20Winchester%20Street"
   },
   "5000128090421":{
      "branchCode":"5000128090421",
      "storeName":"307",
      "monday":"Winchester, City Road",
      "tuesday":"07:00-22:00",
      "wednesday":"07:00-22:00",
      "thursday":"07:00-22:00",
      "friday":"07:00-22:00",
      "saturday":"07:00-22:00",
      "sunday":"07:00-22:00",
      "area":"07:00-22:00",
      "areaManager":"5",
      "address":"16 City Road",
      "town":"Hampshire",
      "county":"SO23 8SD",
      "postcode":"01962 863017",
      "telephone":"0307@southerncoops.co.uk",
      "email":"51.0667415",
      "latitude":-1.3175546,
      "longitude":"No",
      "carPark":"https://mostlane.sharepoint.com/Mostlane%20Shared%20Documents/Forms/AllItems.aspx?id=%2FMostlane%20Shared%20Documents%2FMostlane%20Construction%2FTSC%20Compliance%2FRetail%2F307%20Winchester%20City%20Road"
   },
   "5000128092652":{
      "branchCode":"5000128092652",
      "storeName":"316",
      "monday":"Rooksdown, Limes Park ",
      "tuesday":"06:30-22:00",
      "wednesday":"06:30-22:00",
      "thursday":"06:30-22:00",
      "friday":"06:30-22:00",
      "saturday":"06:30-22:00",
      "sunday":"06:30-22:00",
      "area":"06:30-22:00",
      "areaManager":"5",
      "address":"Unit 3, Limes Park ",
      "town":"Hampshire",
      "county":"RG24 9RD",
      "postcode":"01256 323721",
      "telephone":"0316@southerncoops.co.uk",
      "email":"51.28157",
      "latitude":-1.11969,
      "longitude":"Yes",
      "carPark":"https://mostlane.sharepoint.com/Mostlane%20Shared%20Documents/Forms/AllItems.aspx?id=%2FMostlane%20Shared%20Documents%2FMostlane%20Construction%2FTSC%20Compliance%2FRetail%2F316%20Rooksdown%20Limes%20Park%20"
   },
   "5000128011138":{
      "branchCode":"5000128011138",
      "storeName":"345",
      "monday":"Newbury, Pound Street ",
      "tuesday":"07:00-22:00",
      "wednesday":"07:00-22:00",
      "thursday":"07:00-22:00",
      "friday":"07:00-22:00",
      "saturday":"07:00-22:00",
      "sunday":"07:00-22:00",
      "area":"07:00-22:00",
      "areaManager":"5",
      "address":"35 Pound Street",
      "town":"Berkshire",
      "county":"RG14 6AE",
      "postcode":"01635 43627",
      "telephone":"0345@southerncoops.co.uk",
      "email":"51.3965479",
      "latitude":-1.3287576,
      "longitude":"Yes",
      "carPark":"https://mostlane.sharepoint.com/Mostlane%20Shared%20Documents/Forms/AllItems.aspx?id=%2FMostlane%20Shared%20Documents%2FMostlane%20Construction%2FTSC%20Compliance%2FRetail%2F345%20Newbury%20Pound%20Street%20"
   },
   "5000128090997":{
      "branchCode":"5000128090997",
      "storeName":"408",
      "monday":"Newbury, Brummell Road",
      "tuesday":"07:00-22:00",
      "wednesday":"07:00-22:00",
      "thursday":"07:00-22:00",
      "friday":"07:00-22:00",
      "saturday":"07:00-22:00",
      "sunday":"07:00-22:00",
      "area":"07:00-22:00",
      "areaManager":"5",
      "address":"75 Brummell Road",
      "town":"Berkshire",
      "county":"RG14 1SG",
      "postcode":"01635 569367",
      "telephone":"0408@southerncoops.co.uk",
      "email":"51.4085922",
      "latitude":-1.3371773,
      "longitude":"Yes",
      "carPark":"https://mostlane.sharepoint.com/Mostlane%20Shared%20Documents/Forms/AllItems.aspx?id=%2FMostlane%20Shared%20Documents%2FMostlane%20Construction%2FTSC%20Compliance%2FRetail%2F408%20Newbury%20Brummell%20Road"
   },
   "5000128093363":{
      "branchCode":"5000128093363",
      "storeName":"415",
      "monday":"Andover East Anton Farm Road",
      "tuesday":"07:00-22:00",
      "wednesday":"07:00-22:00",
      "thursday":"07:00-22:00",
      "friday":"07:00-22:00",
      "saturday":"07:00-22:00",
      "sunday":"07:00-22:00",
      "area":"07:00-22:00",
      "areaManager":"5",
      "address":"Unit 1, East Anton Farm Road,",
      "town":"Hampshire",
      "county":"SP11 6RD",
      "postcode":"01264 316465",
      "telephone":"0415@southerncoops.co.uk",
      "email":"51.2281057",
      "latitude":-1.466482,
      "longitude":"Yes",
      "carPark":"https://mostlane.sharepoint.com/Mostlane%20Shared%20Documents/Forms/AllItems.aspx?id=%2FMostlane%20Shared%20Documents%2FMostlane%20Construction%2FTSC%20Compliance%2FRetail%2F415%20Andover%20East%20Anton%20Farm%20Road"
   },
   "5000128093444":{
      "branchCode":"5000128093444",
      "storeName":"426",
      "monday":"Andover, Picket Twenty",
      "tuesday":"07:00-22:00",
      "wednesday":"07:00-22:00",
      "thursday":"07:00-22:00",
      "friday":"07:00-22:00",
      "saturday":"07:00-22:00",
      "sunday":"07:00-22:00",
      "area":"07:00-22:00",
      "areaManager":"5",
      "address":"Unit 1, Eclipse House,",
      "town":"Hampshire",
      "county":"SP11 6TY",
      "postcode":"01264 318598",
      "telephone":"0426@southerncoops.co.uk",
      "email":"51.2052447",
      "latitude":-1.4428806,
      "longitude":"Yes",
      "carPark":"https://mostlane.sharepoint.com/Mostlane%20Shared%20Documents/Forms/AllItems.aspx?id=%2FMostlane%20Shared%20Documents%2FMostlane%20Construction%2FTSC%20Compliance%2FRetail%2F426%20Andover%20Picket%20Twenty"
   },
   "5000128091433":{
      "branchCode":"5000128091433",
      "storeName":"104",
      "monday":"Fairoak, Sandy Lane",
      "tuesday":"07:00-22:00",
      "wednesday":"07:00-22:00",
      "thursday":"07:00-22:00",
      "friday":"07:00-22:00",
      "saturday":"07:00-22:00",
      "sunday":"07:00-22:00",
      "area":"07:00-22:00",
      "areaManager":"5",
      "address":"50 Sandy Lane",
      "town":"Hampshire",
      "county":"SO50 8GB",
      "postcode":"02380 692854",
      "telephone":"0104@southerncoops.co.uk",
      "email":"50.9678016",
      "latitude":-1.3043184,
      "longitude":"Yes",
      "carPark":"https://mostlane.sharepoint.com/Mostlane%20Shared%20Documents/Forms/AllItems.aspx?id=%2FMostlane%20Shared%20Documents%2FMostlane%20Construction%2FTSC%20Compliance%2FRetail%2F104%20Fairoak%20Sandy%20Lane"
   },
   "5000128091789":{
      "branchCode":"5000128091789",
      "storeName":"211",
      "monday":"Colden Common, St Vigor Way",
      "tuesday":"07:00-22:00",
      "wednesday":"07:00-22:00",
      "thursday":"07:00-22:00",
      "friday":"07:00-22:00",
      "saturday":"07:00-22:00",
      "sunday":"07:00-22:00",
      "area":"07:00-22:00",
      "areaManager":"5",
      "address":"St Vigor Way",
      "town":"Hampshire",
      "county":"SO21 1UU",
      "postcode":"01962 711400",
      "telephone":"0211@southerncoops.co.uk",
      "email":"50.9962725",
      "latitude":-1.3217141,
      "longitude":"Yes",
      "carPark":"https://mostlane.sharepoint.com/Mostlane%20Shared%20Documents/Forms/AllItems.aspx?id=%2FMostlane%20Shared%20Documents%2FMostlane%20Construction%2FTSC%20Compliance%2FRetail%2F211%20Colden%20Common%20St%20Vigor%20Way"
   },
   "5000128092458":{
      "branchCode":"5000128092458",
      "storeName":"310",
      "monday":"Eastleigh, Leigh Road",
      "tuesday":"06:30-22:00",
      "wednesday":"06:30-22:00",
      "thursday":"06:30-22:00",
      "friday":"06:30-22:00",
      "saturday":"06:30-22:00",
      "sunday":"06:30-22:00",
      "area":"06:30-22:00",
      "areaManager":"6",
      "address":"Leigh Road",
      "town":"Hampshire",
      "county":"SO50 5LN",
      "postcode":"02380 611179",
      "telephone":"0310@southerncoops.co.uk",
      "email":"50.96988",
      "latitude":-1.36023,
      "longitude":"Yes",
      "carPark":"https://mostlane.sharepoint.com/Mostlane%20Shared%20Documents/Forms/AllItems.aspx?id=%2FMostlane%20Shared%20Documents%2FMostlane%20Construction%2FTSC%20Compliance%2FRetail%2F310%20Eastleigh%20Leigh%20Road"
   },
   "5000128091556":{
      "branchCode":"5000128091556",
      "storeName":"23",
      "monday":"North Baddesley, Seymour Parade",
      "tuesday":"07:00-22:00",
      "wednesday":"07:00-22:00",
      "thursday":"07:00-22:00",
      "friday":"07:00-22:00",
      "saturday":"07:00-22:00",
      "sunday":"07:00-22:00",
      "area":"07:00-22:00",
      "areaManager":"6",
      "address":"1 - 5 Seymour Parade",
      "town":"Hampshire",
      "county":"SO52 9FN",
      "postcode":"02380 732652",
      "telephone":"0023@southerncoops.co.uk",
      "email":"50.9760277",
      "latitude":-1.4490187,
      "longitude":"Yes",
      "carPark":"https://mostlane.sharepoint.com/Mostlane%20Shared%20Documents/Forms/AllItems.aspx?id=%2FMostlane%20Shared%20Documents%2FMostlane%20Construction%2FTSC%20Compliance%2FRetail%2F23%20North%20Baddesley%20Seymour%20Parade"
   },
   "5000128091543":{
      "branchCode":"5000128091543",
      "storeName":"109",
      "monday":"Romsey, Winchester Hill (PFS)",
      "tuesday":"07:00-22:00",
      "wednesday":"07:00-22:00",
      "thursday":"07:00-22:00",
      "friday":"07:00-22:00",
      "saturday":"07:00-22:00",
      "sunday":"07:00-22:00",
      "area":"07:00-22:00",
      "areaManager":"6",
      "address":"Winchester Hill",
      "town":"Hampshire",
      "county":"SO51 7YY",
      "postcode":"01794 517900",
      "telephone":"0109@southerncoops.co.uk",
      "email":"50.9934267",
      "latitude":-1.480816,
      "longitude":"Yes",
      "carPark":"https://mostlane.sharepoint.com/Mostlane%20Shared%20Documents/Forms/AllItems.aspx?id=%2FMostlane%20Shared%20Documents%2FMostlane%20Construction%2FTSC%20Compliance%2FRetail%2F109%20Romsey%20Winchester%20Hill%20%28PFS%29"
   },
   "5000128091802":{
      "branchCode":"5000128091802",
      "storeName":"213",
      "monday":"Romsey, Warren Gardens",
      "tuesday":"07:00-22:00",
      "wednesday":"07:00-22:00",
      "thursday":"07:00-22:00",
      "friday":"07:00-22:00",
      "saturday":"07:00-22:00",
      "sunday":"07:00-22:00",
      "area":"07:00-22:00",
      "areaManager":"6",
      "address":"19 - 20 Warren Gardens",
      "town":"Hampshire",
      "county":"SO51 7TR",
      "postcode":"01794 513715",
      "telephone":"0213@southerncoops.co.uk",
      "email":"50.9996088",
      "latitude":-1.476119,
      "longitude":"Yes",
      "carPark":"https://mostlane.sharepoint.com/Mostlane%20Shared%20Documents/Forms/AllItems.aspx?id=%2FMostlane%20Shared%20Documents%2FMostlane%20Construction%2FTSC%20Compliance%2FRetail%2F213%20Romsey%20Warren%20Gardens"
   },
   "5000128092092":{
      "branchCode":"5000128092092",
      "storeName":"245",
      "monday":"Romsey, The Hundred",
      "tuesday":"07:00-22:00",
      "wednesday":"07:00-22:00",
      "thursday":"07:00-22:00",
      "friday":"07:00-22:00",
      "saturday":"07:00-22:00",
      "sunday":"07:00-22:00",
      "area":"07:00-22:00",
      "areaManager":"6",
      "address":"22 - 24 The Hundred",
      "town":"Hampshire",
      "county":"SO51 8ZP",
      "postcode":"01794 516064",
      "telephone":"0245@southerncoops.co.uk",
      "email":"50.9890239",
      "latitude":-1.498084,
      "longitude":"No",
      "carPark":"https://mostlane.sharepoint.com/Mostlane%20Shared%20Documents/Forms/AllItems.aspx?id=%2FMostlane%20Shared%20Documents%2FMostlane%20Construction%2FTSC%20Compliance%2FRetail%2F245%20Romsey%20The%20Hundred"
   },
   "5000128093282":{
      "branchCode":"5000128093282",
      "storeName":"341",
      "monday":"Romsey, Abbotswood Common Road",
      "tuesday":"07:00-22:00",
      "wednesday":"07:00-22:00",
      "thursday":"07:00-22:00",
      "friday":"07:00-22:00",
      "saturday":"07:00-22:00",
      "sunday":"07:00-22:00",
      "area":"07:00-22:00",
      "areaManager":"6",
      "address":"16 Abbotswood Common Road,",
      "town":"Hampshire",
      "county":"SO51 0BX",
      "postcode":"01794 515514",
      "telephone":"0341@southerncoops.co.uk",
      "email":"51.00363",
      "latitude":-1.4737362,
      "longitude":"Yes",
      "carPark":"https://mostlane.sharepoint.com/Mostlane%20Shared%20Documents/Forms/AllItems.aspx?id=%2FMostlane%20Shared%20Documents%2FMostlane%20Construction%2FTSC%20Compliance%2FRetail%2F341%20Romsey%20Abbotswood%20Common%20Road"
   },
   "5000128093059":{
      "branchCode":"5000128093059",
      "storeName":"381",
      "monday":"Romsey, Botley Road",
      "tuesday":"07:00-22:00",
      "wednesday":"07:00-22:00",
      "thursday":"07:00-22:00",
      "friday":"07:00-22:00",
      "saturday":"07:00-22:00",
      "sunday":"07:00-22:00",
      "area":"07:00-22:00",
      "areaManager":"6",
      "address":"Botley Road,",
      "town":"Hampshire",
      "county":"SO51 5AB",
      "postcode":"01794 513465",
      "telephone":"0381@southerncoops.co.uk",
      "email":"50.9883982",
      "latitude":-1.4848407,
      "longitude":"Yes",
      "carPark":"https://mostlane.sharepoint.com/Mostlane%20Shared%20Documents/Forms/AllItems.aspx?id=%2FMostlane%20Shared%20Documents%2FMostlane%20Construction%2FTSC%20Compliance%2FRetail%2F381%20Romsey%20Botley%20Road"
   },
   "5000128093224":{
      "branchCode":"5000128093224",
      "storeName":"397",
      "monday":"Southampton, City Gateway",
      "tuesday":"07:00-22:00",
      "wednesday":"07:00-22:00",
      "thursday":"07:00-22:00",
      "friday":"07:00-22:00",
      "saturday":"07:00-22:00",
      "sunday":"07:00-22:00",
      "area":"07:00-22:00",
      "areaManager":"6",
      "address":"Unit 1, City Gateway, ",
      "town":"Hampshire",
      "county":"SO16 2JA",
      "postcode":"02380 586247",
      "telephone":"0397@southerncoops.co.uk",
      "email":"50.9399494",
      "latitude":-1.3788985,
      "longitude":"Yes",
      "carPark":"https://mostlane.sharepoint.com/Mostlane%20Shared%20Documents/Forms/AllItems.aspx?id=%2FMostlane%20Shared%20Documents%2FMostlane%20Construction%2FTSC%20Compliance%2FRetail%2F397%20Southampton%20City%20Gateway"
   },
   "5000128093318":{
      "branchCode":"5000128093318",
      "storeName":"406",
      "monday":"West End, High Street",
      "tuesday":"07:00-22:00",
      "wednesday":"07:00-22:00",
      "thursday":"07:00-22:00",
      "friday":"07:00-22:00",
      "saturday":"07:00-22:00",
      "sunday":"07:00-22:00",
      "area":"07:00-22:00",
      "areaManager":"6",
      "address":"3, High Street,",
      "town":"Hampshire",
      "county":"SO30 3AA",
      "postcode":"02380 462854",
      "telephone":"0406@southerncoops.co.uk",
      "email":"50.9293065",
      "latitude":-1.3434104,
      "longitude":"Yes",
      "carPark":"https://mostlane.sharepoint.com/Mostlane%20Shared%20Documents/Forms/AllItems.aspx?id=%2FMostlane%20Shared%20Documents%2FMostlane%20Construction%2FTSC%20Compliance%2FRetail%2F406%20West%20End%20High%20Street"
   },
   "5000128091598":{
      "branchCode":"5000128091598",
      "storeName":"28",
      "monday":"Chandlers Ford, Falkland Court",
      "tuesday":"06:00-22:00",
      "wednesday":"06:00-22:00",
      "thursday":"06:00-22:00",
      "friday":"06:00-22:00",
      "saturday":"06:00-22:00",
      "sunday":"06:00-22:00",
      "area":"07:00-22:00",
      "areaManager":"6",
      "address":"5 Falkland Court",
      "town":"Hampshire",
      "county":"SO53 3GA",
      "postcode":"02380 269680",
      "telephone":"0028@southerncoops.co.uk",
      "email":"50.97197",
      "latitude":-1.382775,
      "longitude":"Yes",
      "carPark":"https://mostlane.sharepoint.com/Mostlane%20Shared%20Documents/Forms/AllItems.aspx?id=%2FMostlane%20Shared%20Documents%2FMostlane%20Construction%2FTSC%20Compliance%2FRetail%2F28%20Chandlers%20Ford%20Falkland%20Court"
   },
   "5000128090285":{
      "branchCode":"5000128090285",
      "storeName":"55",
      "monday":"Bishops Waltham, High Street",
      "tuesday":"06:00-22:00",
      "wednesday":"06:00-22:00",
      "thursday":"06:00-22:00",
      "friday":"06:00-22:00",
      "saturday":"06:00-22:00",
      "sunday":"06:00-22:00",
      "area":"06:00-22:00",
      "areaManager":"6",
      "address":"High Street",
      "town":"Hampshire",
      "county":"SO32 1AB",
      "postcode":"01489 895262",
      "telephone":"0055@southerncoops.co.uk",
      "email":"50.9545641",
      "latitude":-1.2124734,
      "longitude":"No",
      "carPark":"https://mostlane.sharepoint.com/Mostlane%20Shared%20Documents/Forms/AllItems.aspx?id=%2FMostlane%20Shared%20Documents%2FMostlane%20Construction%2FTSC%20Compliance%2FRetail%2F55%20Bishops%20Waltham%20High%20Street"
   },
   "5000128090861":{
      "branchCode":"5000128090861",
      "storeName":"66",
      "monday":"Wickham, The Square",
      "tuesday":"07:00-22:00",
      "wednesday":"07:00-22:00",
      "thursday":"07:00-22:00",
      "friday":"07:00-22:00",
      "saturday":"07:00-22:00",
      "sunday":"07:00-22:00",
      "area":"11:00-17:00",
      "areaManager":"6",
      "address":"4 The Square",
      "town":"Hampshire",
      "county":"PO17 5JN",
      "postcode":"01329 832151",
      "telephone":"0066@southerncoops.co.uk",
      "email":"50.899773",
      "latitude":-1.1880653,
      "longitude":"No",
      "carPark":"https://mostlane.sharepoint.com/Mostlane%20Shared%20Documents/Forms/AllItems.aspx?id=%2FMostlane%20Shared%20Documents%2FMostlane%20Construction%2FTSC%20Compliance%2FRetail%2F66%20Wickham%20The%20Square"
   },
   "5000128090463":{
      "branchCode":"5000128090463",
      "storeName":"98",
      "monday":"Boyatt Wood, The Parade",
      "tuesday":"07:00-22:00",
      "wednesday":"07:00-22:00",
      "thursday":"07:00-22:00",
      "friday":"07:00-22:00",
      "saturday":"07:00-22:00",
      "sunday":"07:00-22:00",
      "area":"07:00-22:00",
      "areaManager":"6",
      "address":"6 - 8 The Parade",
      "town":"Hampshire",
      "county":"SO50 4QP",
      "postcode":"02380 652083",
      "telephone":"0098@southerncoops.co.uk",
      "email":"50.9776341",
      "latitude":-1.3597091,
      "longitude":"Yes",
      "carPark":"https://mostlane.sharepoint.com/Mostlane%20Shared%20Documents/Forms/AllItems.aspx?id=%2FMostlane%20Shared%20Documents%2FMostlane%20Construction%2FTSC%20Compliance%2FRetail%2F98%20Boyatt%20Wood%20The%20Parade"
   },
   "5000128090667":{
      "branchCode":"5000128090667",
      "storeName":"62",
      "monday":"Denmead, Hambledon Road ",
      "tuesday":"06:00-22:00",
      "wednesday":"06:00-22:00",
      "thursday":"06:00-22:00",
      "friday":"06:00-22:00",
      "saturday":"06:00-22:00",
      "sunday":"06:00-22:00",
      "area":"07:00-22:00",
      "areaManager":"6",
      "address":"Hambledon Road",
      "town":"Hampshire",
      "county":"PO7 6NU",
      "postcode":"02392 251507",
      "telephone":"0062@southerncoops.co.uk",
      "email":"50.9041057",
      "latitude":-1.0656352,
      "longitude":"Yes",
      "carPark":"https://mostlane.sharepoint.com/Mostlane%20Shared%20Documents/Forms/AllItems.aspx?id=%2FMostlane%20Shared%20Documents%2FMostlane%20Construction%2FTSC%20Compliance%2FRetail%2F62%20Denmead%20Hambledon%20Road%20"
   },
   "5000128092199":{
      "branchCode":"5000128092199",
      "storeName":"150",
      "monday":"Whiteley, Yew Tree Drive",
      "tuesday":"07:00-22:00",
      "wednesday":"07:00-22:00",
      "thursday":"07:00-22:00",
      "friday":"07:00-22:00",
      "saturday":"07:00-22:00",
      "sunday":"07:00-22:00",
      "area":"07:00-22:00",
      "areaManager":"6",
      "address":"Unit 1, Yew Tree Drive",
      "town":"Hampshire ",
      "county":"PO15 7LB",
      "postcode":"01489 564197",
      "telephone":"0150@southerncoops.co.uk",
      "email":"50.8813718",
      "latitude":-1.2576773,
      "longitude":"Yes",
      "carPark":"https://mostlane.sharepoint.com/Mostlane%20Shared%20Documents/Forms/AllItems.aspx?id=%2FMostlane%20Shared%20Documents%2FMostlane%20Construction%2FTSC%20Compliance%2FRetail%2F150%20Whiteley%20Yew%20Tree%20Drive"
   },
   "5000128092416":{
      "branchCode":"5000128092416",
      "storeName":"178",
      "monday":"Southampton, Hursley Road",
      "tuesday":"07:00-22:00",
      "wednesday":"07:00-22:00",
      "thursday":"07:00-22:00",
      "friday":"07:00-22:00",
      "saturday":"07:00-22:00",
      "sunday":"07:00-22:00",
      "area":"07:00-22:00",
      "areaManager":"6",
      "address":"14 Hursley Road ",
      "town":"Hampshire ",
      "county":"SO53 2FU ",
      "postcode":"02380 266468",
      "telephone":"0178@southerncoops.co.uk",
      "email":"50.9845912",
      "latitude":-1.3850046,
      "longitude":"Yes",
      "carPark":"https://mostlane.sharepoint.com/Mostlane%20Shared%20Documents/Forms/AllItems.aspx?id=%2FMostlane%20Shared%20Documents%2FMostlane%20Construction%2FTSC%20Compliance%2FRetail%2F178%20Southampton%20Hursley%20Road"
   },
   "5000128090780":{
      "branchCode":"5000128090780",
      "storeName":"125",
      "monday":"Shanklin, Regent Street",
      "tuesday":"07:00-22:00",
      "wednesday":"07:00-22:00",
      "thursday":"07:00-22:00",
      "friday":"07:00-22:00",
      "saturday":"07:00-22:00",
      "sunday":"07:00-22:00",
      "area":"07:00-22:00",
      "areaManager":"7",
      "address":"42 Regent Street",
      "town":"Isle Of Wight",
      "county":"PO37 7AA",
      "postcode":"01983 861318",
      "telephone":"0125@southerncoops.co.uk",
      "email":"50.630759",
      "latitude":-1.1784593,
      "longitude":"No",
      "carPark":"https://mostlane.sharepoint.com/Mostlane%20Shared%20Documents/Forms/AllItems.aspx?id=%2FMostlane%20Shared%20Documents%2FMostlane%20Construction%2FTSC%20Compliance%2FRetail%2F125%20Shanklin%20Regent%20Street"
   },
   "5000128090450":{
      "branchCode":"5000128090450",
      "storeName":"127",
      "monday":"Gosport, Forton Road 268",
      "tuesday":"06:00-22:00",
      "wednesday":"06:00-22:00",
      "thursday":"06:00-22:00",
      "friday":"06:00-22:00",
      "saturday":"06:00-22:00",
      "sunday":"06:00-22:00",
      "area":"06:00-22:00",
      "areaManager":"7",
      "address":"268 Forton Road",
      "town":"Hampshire",
      "county":"PO12 3HW",
      "postcode":"02392 581033",
      "telephone":"0127@southerncoops.co.uk",
      "email":"50.8034696",
      "latitude":-1.148621,
      "longitude":"Yes",
      "carPark":"https://mostlane.sharepoint.com/Mostlane%20Shared%20Documents/Forms/AllItems.aspx?id=%2FMostlane%20Shared%20Documents%2FMostlane%20Construction%2FTSC%20Compliance%2FRetail%2F127%20Gosport%20Forton%20Road%20268"
   },
   "5000128090476":{
      "branchCode":"5000128090476",
      "storeName":"128",
      "monday":"Bridgemary, Gregson Avenue",
      "tuesday":"06:00-22:00",
      "wednesday":"06:00-22:00",
      "thursday":"06:00-22:00",
      "friday":"06:00-22:00",
      "saturday":"06:00-22:00",
      "sunday":"06:00-22:00",
      "area":"07:00-22:00",
      "areaManager":"7",
      "address":"84 Gregson Avenue",
      "town":"Hampshire",
      "county":"PO13 0UP",
      "postcode":"01329 232145",
      "telephone":"0128@southerncoops.co.uk",
      "email":"50.828566",
      "latitude":-1.1698969,
      "longitude":"No",
      "carPark":"https://mostlane.sharepoint.com/Mostlane%20Shared%20Documents/Forms/AllItems.aspx?id=%2FMostlane%20Shared%20Documents%2FMostlane%20Construction%2FTSC%20Compliance%2FRetail%2F128%20Bridgemary%20Gregson%20Avenue"
   },
   "5000128090489":{
      "branchCode":"5000128090489",
      "storeName":"129",
      "monday":"Gosport, Palmyra Road",
      "tuesday":"06:00-22:00",
      "wednesday":"06:00-22:00",
      "thursday":"06:00-22:00",
      "friday":"06:00-22:00",
      "saturday":"06:00-22:00",
      "sunday":"06:00-22:00",
      "area":"07:00-22:00",
      "areaManager":"7",
      "address":"66 Palmyra Road",
      "town":"Hampshire",
      "county":"PO12 4EH",
      "postcode":"02392 582806",
      "telephone":"0129@southerncoops.co.uk",
      "email":"50.8086071",
      "latitude":-1.1452432,
      "longitude":"Yes",
      "carPark":"https://mostlane.sharepoint.com/Mostlane%20Shared%20Documents/Forms/AllItems.aspx?id=%2FMostlane%20Shared%20Documents%2FMostlane%20Construction%2FTSC%20Compliance%2FRetail%2F129%20Gosport%20Palmyra%20Road"
   },
   "5000128091527":{
      "branchCode":"5000128091527",
      "storeName":"136",
      "monday":"Sandown, Avenue Road (PFS)",
      "tuesday":"07:00-22:00",
      "wednesday":"07:00-22:00",
      "thursday":"07:00-22:00",
      "friday":"07:00-22:00",
      "saturday":"07:00-22:00",
      "sunday":"07:00-22:00",
      "area":"07:00-22:00",
      "areaManager":"7",
      "address":"132 Avenue Road",
      "town":"Isle Of Wight",
      "county":"PO36 9AN",
      "postcode":"01983 408800",
      "telephone":"0136@southerncoops.co.uk",
      "email":"50.662037",
      "latitude":-1.151882,
      "longitude":"Yes",
      "carPark":"https://mostlane.sharepoint.com/Mostlane%20Shared%20Documents/Forms/AllItems.aspx?id=%2FMostlane%20Shared%20Documents%2FMostlane%20Construction%2FTSC%20Compliance%2FRetail%2F136%20Sandown%20Avenue%20Road%20%28PFS%29"
   },
   "5000128091695":{
      "branchCode":"5000128091695",
      "storeName":"202",
      "monday":"Rookley, Main Road",
      "tuesday":"07:00-22:00",
      "wednesday":"07:00-22:00",
      "thursday":"07:00-22:00",
      "friday":"07:00-22:00",
      "saturday":"07:00-22:00",
      "sunday":"07:00-22:00",
      "area":"07:00-22:00",
      "areaManager":"7",
      "address":"Main Road",
      "town":"Isle Of Wight",
      "county":"PO38 3NY",
      "postcode":"01983 721326",
      "telephone":"0202@southerncoops.co.uk",
      "email":"50.6529448",
      "latitude":-1.2791405,
      "longitude":"Yes",
      "carPark":"https://mostlane.sharepoint.com/Mostlane%20Shared%20Documents/Forms/AllItems.aspx?id=%2FMostlane%20Shared%20Documents%2FMostlane%20Construction%2FTSC%20Compliance%2FRetail%2F202%20Rookley%20Main%20Road"
   },
   "5000128091705":{
      "branchCode":"5000128091705",
      "storeName":"203",
      "monday":"Ryde, West Street",
      "tuesday":"07:00-22:00",
      "wednesday":"07:00-22:00",
      "thursday":"07:00-22:00",
      "friday":"07:00-22:00",
      "saturday":"07:00-22:00",
      "sunday":"07:00-22:00",
      "area":"07:00-22:00",
      "areaManager":"7",
      "address":"61 - 62 West Street",
      "town":"Isle Of Wight",
      "county":"PO33 2UH",
      "postcode":"01983 562469",
      "telephone":"0203@southerncoops.co.uk",
      "email":"50.7241703",
      "latitude":-1.1669557,
      "longitude":"No",
      "carPark":"https://mostlane.sharepoint.com/Mostlane%20Shared%20Documents/Forms/AllItems.aspx?id=%2FMostlane%20Shared%20Documents%2FMostlane%20Construction%2FTSC%20Compliance%2FRetail%2F203%20Ryde%20West%20Street"
   },
   "5000128091718":{
      "branchCode":"5000128091718",
      "storeName":"204",
      "monday":"Bembridge, Sherbourne Street",
      "tuesday":"07:00-22:00",
      "wednesday":"07:00-22:00",
      "thursday":"07:00-22:00",
      "friday":"07:00-22:00",
      "saturday":"07:00-22:00",
      "sunday":"07:00-22:00",
      "area":"07:00-22:00",
      "areaManager":"7",
      "address":"Sherbourne Street",
      "town":"Isle Of Wight",
      "county":"PO35 5SB",
      "postcode":"01983 872571",
      "telephone":"0204@southerncoops.co.uk",
      "email":"50.6911195",
      "latitude":-1.0887976,
      "longitude":"No",
      "carPark":"https://mostlane.sharepoint.com/Mostlane%20Shared%20Documents/Forms/AllItems.aspx?id=%2FMostlane%20Shared%20Documents%2FMostlane%20Construction%2FTSC%20Compliance%2FRetail%2F204%20Bembridge%20Sherbourne%20Street"
   },
   "5000128091721":{
      "branchCode":"5000128091721",
      "storeName":"205",
      "monday":"Cowes, Mill Hill Road",
      "tuesday":"06:00-22:00",
      "wednesday":"06:00-22:00",
      "thursday":"06:00-22:00",
      "friday":"06:00-22:00",
      "saturday":"06:00-22:00",
      "sunday":"06:00-22:00",
      "area":"06:00-22:00",
      "areaManager":"7",
      "address":"155 Mill Hill Road",
      "town":"Isle Of Wight",
      "county":"PO31 7EL",
      "postcode":"01983 289868",
      "telephone":"0205@southerncoops.co.uk",
      "email":"50.7543385",
      "latitude":-1.3020423,
      "longitude":"Yes",
      "carPark":"https://mostlane.sharepoint.com/Mostlane%20Shared%20Documents/Forms/AllItems.aspx?id=%2FMostlane%20Shared%20Documents%2FMostlane%20Construction%2FTSC%20Compliance%2FRetail%2F205%20Cowes%20Mill%20Hill%20Road"
   },
   "5000128091679":{
      "branchCode":"5000128091679",
      "storeName":"207",
      "monday":"Carisbrooke, High Street",
      "tuesday":"07:00-22:00",
      "wednesday":"07:00-22:00",
      "thursday":"07:00-22:00",
      "friday":"07:00-22:00",
      "saturday":"07:00-22:00",
      "sunday":"07:00-22:00",
      "area":"07:00-22:00",
      "areaManager":"7",
      "address":"52 High Street",
      "town":"Isle Of Wight",
      "county":"PO30 1NR",
      "postcode":"01983 521131",
      "telephone":"0207@southerncoops.co.uk",
      "email":"50.6916325",
      "latitude":-1.3124835,
      "longitude":"Yes",
      "carPark":"https://mostlane.sharepoint.com/Mostlane%20Shared%20Documents/Forms/AllItems.aspx?id=%2FMostlane%20Shared%20Documents%2FMostlane%20Construction%2FTSC%20Compliance%2FRetail%2F207%20Carisbrooke%20High%20Street"
   },
   "5000128091747":{
      "branchCode":"5000128091747",
      "storeName":"208",
      "monday":"Freshwater, Avenue Road",
      "tuesday":"07:00-22:00",
      "wednesday":"07:00-22:00",
      "thursday":"07:00-22:00",
      "friday":"07:00-22:00",
      "saturday":"07:00-22:00",
      "sunday":"07:00-22:00",
      "area":"07:00-22:00",
      "areaManager":"7",
      "address":"Avenue Road",
      "town":"Isle Of Wight",
      "county":"PO40 9UU",
      "postcode":"01983 754443",
      "telephone":"0208@southerncoops.co.uk",
      "email":"50.684091",
      "latitude":-1.5294708,
      "longitude":"No",
      "carPark":"https://mostlane.sharepoint.com/Mostlane%20Shared%20Documents/Forms/AllItems.aspx?id=%2FMostlane%20Shared%20Documents%2FMostlane%20Construction%2FTSC%20Compliance%2FRetail%2F208%20Freshwater%20Avenue%20Road"
   },
   "5000128091776":{
      "branchCode":"5000128091776",
      "storeName":"210",
      "monday":"Gosport, Dartmouth Court",
      "tuesday":"07:00-22:00",
      "wednesday":"07:00-22:00",
      "thursday":"07:00-22:00",
      "friday":"07:00-22:00",
      "saturday":"07:00-22:00",
      "sunday":"07:00-22:00",
      "area":"07:00-22:00",
      "areaManager":"7",
      "address":"1 Dartmouth Court",
      "town":"Hampshire",
      "county":"PO12 4BQ",
      "postcode":"02392 529988",
      "telephone":"0210@southerncoops.co.uk",
      "email":"50.8088099",
      "latitude":-1.1331118,
      "longitude":"Yes",
      "carPark":"https://mostlane.sharepoint.com/Mostlane%20Shared%20Documents/Forms/AllItems.aspx?id=%2FMostlane%20Shared%20Documents%2FMostlane%20Construction%2FTSC%20Compliance%2FRetail%2F210%20Gosport%20Dartmouth%20Court"
   },
   "5000128091763":{
      "branchCode":"5000128091763",
      "storeName":"22",
      "monday":"Lee on Solent, Twyford Drive",
      "tuesday":"07:00-22:00",
      "wednesday":"07:00-22:00",
      "thursday":"07:00-22:00",
      "friday":"07:00-22:00",
      "saturday":"07:00-22:00",
      "sunday":"07:00-22:00",
      "area":"07:00-22:00",
      "areaManager":"7",
      "address":"Unit A Twyford Drive",
      "town":"Hampshire",
      "county":"PO13 8AT",
      "postcode":"02392 554713",
      "telephone":"0022@southerncoops.co.uk",
      "email":"50.805007",
      "latitude":-1.1924651,
      "longitude":"Yes",
      "carPark":"https://mostlane.sharepoint.com/Mostlane%20Shared%20Documents/Forms/AllItems.aspx?id=%2FMostlane%20Shared%20Documents%2FMostlane%20Construction%2FTSC%20Compliance%2FRetail%2F22%20Lee%20on%20Solent%20Twyford%20Drive"
   },
   "5000128090188":{
      "branchCode":"5000128090188",
      "storeName":"32",
      "monday":"Fareham, Gudge Heath Lane",
      "tuesday":"06:30-22:00",
      "wednesday":"06:30-22:00",
      "thursday":"06:30-22:00",
      "friday":"06:30-22:00",
      "saturday":"06:30-22:00",
      "sunday":"06:30-22:00",
      "area":"06:30-22:00",
      "areaManager":"7",
      "address":"219 Gudge Heath Lane",
      "town":"Hampshire",
      "county":"PO15 6PZ",
      "postcode":"01329 280959",
      "telephone":"0032@southerncoops.co.uk",
      "email":"50.8604661",
      "latitude":-1.207992,
      "longitude":"Yes",
      "carPark":"https://mostlane.sharepoint.com/Mostlane%20Shared%20Documents/Forms/AllItems.aspx?id=%2FMostlane%20Shared%20Documents%2FMostlane%20Construction%2FTSC%20Compliance%2FRetail%2F32%20Fareham%20Gudge%20Heath%20Lane"
   },
   "5000128090845":{
      "branchCode":"5000128090845",
      "storeName":"37",
      "monday":"Titchfield, The Square",
      "tuesday":"07:00-22:00",
      "wednesday":"07:00-22:00",
      "thursday":"07:00-22:00",
      "friday":"07:00-22:00",
      "saturday":"07:00-22:00",
      "sunday":"07:00-22:00",
      "area":"07:00-22:00",
      "areaManager":"7",
      "address":"44 The Square",
      "town":"Hampshire",
      "county":"PO14 4AF",
      "postcode":"01329 842708",
      "telephone":"0037@southerncoops.co.uk",
      "email":"50.8491735",
      "latitude":-1.2342364,
      "longitude":"No",
      "carPark":"https://mostlane.sharepoint.com/Mostlane%20Shared%20Documents/Forms/AllItems.aspx?id=%2FMostlane%20Shared%20Documents%2FMostlane%20Construction%2FTSC%20Compliance%2FRetail%2F37%20Titchfield%20The%20Square"
   },
   "5000128090502":{
      "branchCode":"5000128090502",
      "storeName":"126",
      "monday":"Lee on Solent, High Street",
      "tuesday":"07:00-22:00",
      "wednesday":"07:00-22:00",
      "thursday":"07:00-22:00",
      "friday":"07:00-22:00",
      "saturday":"07:00-22:00",
      "sunday":"07:00-22:00",
      "area":"10:00-16:00",
      "areaManager":"7",
      "address":"119 - 121 High Street",
      "town":"Hampshire",
      "county":"PO13 9BU",
      "postcode":"02392 550157",
      "telephone":"0126@southerncoops.co.uk",
      "email":"50.8014556",
      "latitude":-1.2019162,
      "longitude":"No",
      "carPark":"https://mostlane.sharepoint.com/Mostlane%20Shared%20Documents/Forms/AllItems.aspx?id=%2FMostlane%20Shared%20Documents%2FMostlane%20Construction%2FTSC%20Compliance%2FRetail%2F126%20Lee%20on%20Solent%20High%20Street"
   },
   "5000128090654":{
      "branchCode":"5000128090654",
      "storeName":"52",
      "monday":"Cowplain, London Road",
      "tuesday":"07:00-22:00",
      "wednesday":"07:00-22:00",
      "thursday":"07:00-22:00",
      "friday":"07:00-22:00",
      "saturday":"07:00-22:00",
      "sunday":"07:00-22:00",
      "area":"07:00-22:00",
      "areaManager":"8",
      "address":"83 London Road",
      "town":"Hampshire",
      "county":"PO8 8XB",
      "postcode":"02392 263507",
      "telephone":"0052@southerncoops.co.uk",
      "email":"50.895142",
      "latitude":-1.0177588,
      "longitude":"Yes",
      "carPark":"https://mostlane.sharepoint.com/Mostlane%20Shared%20Documents/Forms/AllItems.aspx?id=%2FMostlane%20Shared%20Documents%2FMostlane%20Construction%2FTSC%20Compliance%2FRetail%2F52%20Cowplain%20London%20Road"
   },
   "5000128090751":{
      "branchCode":"5000128090751",
      "storeName":"73",
      "monday":"Crookhorn, The Precinct",
      "tuesday":"06:00-22:00",
      "wednesday":"06:00-22:00",
      "thursday":"06:00-22:00",
      "friday":"06:00-22:00",
      "saturday":"06:00-22:00",
      "sunday":"06:00-22:00",
      "area":"07:00-22:00",
      "areaManager":"8",
      "address":"8 Purbrook Chase Precinct",
      "town":"Hampshire",
      "county":"PO7 5QH",
      "postcode":"02392 264790",
      "telephone":"0073@southerncoops.co.uk",
      "email":"50.8602087",
      "latitude":-1.0295694,
      "longitude":"Yes",
      "carPark":"https://mostlane.sharepoint.com/Mostlane%20Shared%20Documents/Forms/AllItems.aspx?id=%2FMostlane%20Shared%20Documents%2FMostlane%20Construction%2FTSC%20Compliance%2FRetail%2F73%20Crookhorn%20The%20Precinct"
   },
   "5000128090599":{
      "branchCode":"5000128090599",
      "storeName":"76",
      "monday":"Hayling Island, Elm Grove",
      "tuesday":"07:00-22:00",
      "wednesday":"07:00-22:00",
      "thursday":"07:00-22:00",
      "friday":"07:00-22:00",
      "saturday":"07:00-22:00",
      "sunday":"07:00-22:00",
      "area":"10:00-16:00",
      "areaManager":"8",
      "address":"140 Elm Grove",
      "town":"Hampshire",
      "county":"PO11 9EH",
      "postcode":"02392 463730",
      "telephone":"0076@southerncoops.co.uk",
      "email":"50.7935687",
      "latitude":-0.9766243,
      "longitude":"Yes",
      "carPark":"https://mostlane.sharepoint.com/Mostlane%20Shared%20Documents/Forms/AllItems.aspx?id=%2FMostlane%20Shared%20Documents%2FMostlane%20Construction%2FTSC%20Compliance%2FRetail%2F76%20Hayling%20Island%20Elm%20Grove"
   },
   "5000128090586":{
      "branchCode":"5000128090586",
      "storeName":"90",
      "monday":"Havant, St Albans Road",
      "tuesday":"07:00-22:00",
      "wednesday":"07:00-22:00",
      "thursday":"07:00-22:00",
      "friday":"07:00-22:00",
      "saturday":"07:00-22:00",
      "sunday":"07:00-22:00",
      "area":"07:00-22:00",
      "areaManager":"8",
      "address":"55 St Albans Road",
      "town":"Hampshire",
      "county":"PO9 2JR",
      "postcode":"02392 450897",
      "telephone":"0090@southerncoops.co.uk",
      "email":"50.8626847",
      "latitude":-0.9741911,
      "longitude":"No",
      "carPark":"https://mostlane.sharepoint.com/Mostlane%20Shared%20Documents/Forms/AllItems.aspx?id=%2FMostlane%20Shared%20Documents%2FMostlane%20Construction%2FTSC%20Compliance%2FRetail%2F90%20Havant%20St%20Albans%20Road"
   },
   "5000128090858":{
      "branchCode":"5000128090858",
      "storeName":"122",
      "monday":"Clanfield, White Dirt Lane",
      "tuesday":"06:30-22:00",
      "wednesday":"06:30-22:00",
      "thursday":"06:30-22:00",
      "friday":"06:30-22:00",
      "saturday":"06:30-22:00",
      "sunday":"06:30-22:00",
      "area":"06:30-22:00",
      "areaManager":"8",
      "address":"Unit 14 White Dirt Lane",
      "town":"Hampshire",
      "county":"PO8 0QL",
      "postcode":"02392 599793",
      "telephone":"0122@southerncoops.co.uk",
      "email":"50.9353659",
      "latitude":-1.0005587,
      "longitude":"Yes",
      "carPark":"https://mostlane.sharepoint.com/Mostlane%20Shared%20Documents/Forms/AllItems.aspx?id=%2FMostlane%20Shared%20Documents%2FMostlane%20Construction%2FTSC%20Compliance%2FRetail%2F122%20Clanfield%20White%20Dirt%20Lane"
   },
   "5000128009263":{
      "branchCode":"5000128009263",
      "storeName":"347",
      "monday":"Waterlooville, Milton Road ",
      "tuesday":"07:00-22:00",
      "wednesday":"07:00-22:00",
      "thursday":"07:00-22:00",
      "friday":"07:00-22:00",
      "saturday":"07:00-22:00",
      "sunday":"07:00-22:00",
      "area":"07:00-22:00",
      "areaManager":"8",
      "address":"143-145 Milton Rd",
      "town":"Hampshire",
      "county":"PO8 8RE",
      "postcode":"02392 261144",
      "telephone":"0347@southerncoops.co.uk",
      "email":"50.8926903",
      "latitude":-1.03259,
      "longitude":"No",
      "carPark":"https://mostlane.sharepoint.com/Mostlane%20Shared%20Documents/Forms/AllItems.aspx?id=%2FMostlane%20Shared%20Documents%2FMostlane%20Construction%2FTSC%20Compliance%2FRetail%2F347%20Waterlooville%20Milton%20Road%20"
   },
   "5000128093198":{
      "branchCode":"5000128093198",
      "storeName":"392",
      "monday":"Purbrook, London Road",
      "tuesday":"06:00-22:30",
      "wednesday":"06:00-22:30",
      "thursday":"06:00-22:30",
      "friday":"06:00-22:30",
      "saturday":"06:00-22:30",
      "sunday":"06:00-22:30",
      "area":"06:00-22:30",
      "areaManager":"8",
      "address":"31 London Road,",
      "town":"Hampshire ",
      "county":"PO7 5LG",
      "postcode":"02392 267596",
      "telephone":"0392@southerncoops.co.uk",
      "email":"50.8686068",
      "latitude":-1.0444812,
      "longitude":"Yes",
      "carPark":"https://mostlane.sharepoint.com/Mostlane%20Shared%20Documents/Forms/AllItems.aspx?id=%2FMostlane%20Shared%20Documents%2FMostlane%20Construction%2FTSC%20Compliance%2FRetail%2F392%20Purbrook%20London%20Road"
   },
   "5000128090379":{
      "branchCode":"5000128090379",
      "storeName":"79",
      "monday":"Emsworth, High Street",
      "tuesday":"07:00-22:00",
      "wednesday":"07:00-22:00",
      "thursday":"07:00-22:00",
      "friday":"07:00-22:00",
      "saturday":"07:00-22:00",
      "sunday":"07:00-22:00",
      "area":"07:00-22:00",
      "areaManager":"8",
      "address":"2 High Street",
      "town":"Hampshire",
      "county":"PO10 7AW",
      "postcode":"01243 372663",
      "telephone":"0079@southerncoops.co.uk",
      "email":"50.8472848",
      "latitude":-0.9368563,
      "longitude":"No",
      "carPark":"https://mostlane.sharepoint.com/Mostlane%20Shared%20Documents/Forms/AllItems.aspx?id=%2FMostlane%20Shared%20Documents%2FMostlane%20Construction%2FTSC%20Compliance%2FRetail%2F79%20Emsworth%20High%20Street"
   },
   "5000128090366":{
      "branchCode":"5000128090366",
      "storeName":"85",
      "monday":"East Wittering, Cakeham Road",
      "tuesday":"07:00-22:00",
      "wednesday":"07:00-22:00",
      "thursday":"07:00-22:00",
      "friday":"07:00-22:00",
      "saturday":"07:00-22:00",
      "sunday":"07:00-22:00",
      "area":"10:00-16:00",
      "areaManager":"8",
      "address":"The Parade",
      "town":"West Sussex",
      "county":"PO20 8BL",
      "postcode":"01243 673423",
      "telephone":"0085@southerncoops.co.uk",
      "email":"50.7693614",
      "latitude":-0.8730179,
      "longitude":"No",
      "carPark":"https://mostlane.sharepoint.com/Mostlane%20Shared%20Documents/Forms/AllItems.aspx?id=%2FMostlane%20Shared%20Documents%2FMostlane%20Construction%2FTSC%20Compliance%2FRetail%2F85%20East%20Wittering%20Cakeham%20Road"
   },
   "5000128090395":{
      "branchCode":"5000128090395",
      "storeName":"89",
      "monday":"Westbourne, The Square",
      "tuesday":"07:00-22:00",
      "wednesday":"07:00-22:00",
      "thursday":"07:00-22:00",
      "friday":"07:00-22:00",
      "saturday":"07:00-22:00",
      "sunday":"07:00-22:00",
      "area":"07:00-22:00",
      "areaManager":"8",
      "address":"The Square",
      "town":"Hampshire",
      "county":"PO10 8UE",
      "postcode":"01243 372477",
      "telephone":"0089@southerncoops.co.uk",
      "email":"50.8617212",
      "latitude":-0.926323,
      "longitude":"Yes",
      "carPark":"https://mostlane.sharepoint.com/Mostlane%20Shared%20Documents/Forms/AllItems.aspx?id=%2FMostlane%20Shared%20Documents%2FMostlane%20Construction%2FTSC%20Compliance%2FRetail%2F89%20Westbourne%20The%20Square"
   },
   "5000128090777":{
      "branchCode":"5000128090777",
      "storeName":"93",
      "monday":"Selsey, High Street",
      "tuesday":"07:00-22:00",
      "wednesday":"07:00-22:00",
      "thursday":"07:00-22:00",
      "friday":"07:00-22:00",
      "saturday":"07:00-22:00",
      "sunday":"07:00-22:00",
      "area":"07:00-22:00",
      "areaManager":"8",
      "address":"123 - 125 High Street",
      "town":"West Sussex",
      "county":"PO20 0QB",
      "postcode":"01243 602110",
      "telephone":"0093@southerncoops.co.uk",
      "email":"50.7319318",
      "latitude":-0.7918022,
      "longitude":"Yes",
      "carPark":"https://mostlane.sharepoint.com/Mostlane%20Shared%20Documents/Forms/AllItems.aspx?id=%2FMostlane%20Shared%20Documents%2FMostlane%20Construction%2FTSC%20Compliance%2FRetail%2F93%20Selsey%20High%20Street"
   },
   "5000128090340":{
      "branchCode":"5000128090340",
      "storeName":"96",
      "monday":"Bosham, Station Road",
      "tuesday":"07:00-22:00",
      "wednesday":"07:00-22:00",
      "thursday":"07:00-22:00",
      "friday":"07:00-22:00",
      "saturday":"07:00-22:00",
      "sunday":"07:00-22:00",
      "area":"07:00-22:00",
      "areaManager":"8",
      "address":"4 Station Road",
      "town":"West Sussex",
      "county":"PO18 8NG",
      "postcode":"01243 572155",
      "telephone":"0096@southerncoops.co.uk",
      "email":"50.8418913",
      "latitude":-0.8479045,
      "longitude":"No",
      "carPark":"https://mostlane.sharepoint.com/Mostlane%20Shared%20Documents/Forms/AllItems.aspx?id=%2FMostlane%20Shared%20Documents%2FMostlane%20Construction%2FTSC%20Compliance%2FRetail%2F96%20Bosham%20Station%20Road"
   },
   "5000128092047":{
      "branchCode":"5000128092047",
      "storeName":"246",
      "monday":"Bosham, Delling Lane",
      "tuesday":"07:00-22:00",
      "wednesday":"07:00-22:00",
      "thursday":"07:00-22:00",
      "friday":"07:00-22:00",
      "saturday":"07:00-22:00",
      "sunday":"07:00-22:00",
      "area":"07:00-22:00",
      "areaManager":"8",
      "address":"Delling Lane",
      "town":"West Sussex",
      "county":"PO18 8NN",
      "postcode":"01243 573111",
      "telephone":"0246@southerncoops.co.uk",
      "email":"50.839569",
      "latitude":-0.850978,
      "longitude":"Yes",
      "carPark":"https://mostlane.sharepoint.com/Mostlane%20Shared%20Documents/Forms/AllItems.aspx?id=%2FMostlane%20Shared%20Documents%2FMostlane%20Construction%2FTSC%20Compliance%2FRetail%2F246%20Bosham%20Delling%20Lane"
   },
   "5000128092762":{
      "branchCode":"5000128092762",
      "storeName":"321",
      "monday":"Chichester, Stockbridge Road ",
      "tuesday":"06:30-22:00",
      "wednesday":"06:30-22:00",
      "thursday":"06:30-22:00",
      "friday":"06:30-22:00",
      "saturday":"06:30-22:00",
      "sunday":"06:30-22:00",
      "area":"06:30-22:00",
      "areaManager":"8",
      "address":"Stockbridge Road ",
      "town":"West Sussex",
      "county":"PO19 8QR",
      "postcode":"01243 776401",
      "telephone":"0321@southerncoops.co.uk",
      "email":"50.8242035",
      "latitude":-0.7877271,
      "longitude":"Yes",
      "carPark":"https://mostlane.sharepoint.com/Mostlane%20Shared%20Documents/Forms/AllItems.aspx?id=%2FMostlane%20Shared%20Documents%2FMostlane%20Construction%2FTSC%20Compliance%2FRetail%2F321%20Chichester%20Stockbridge%20Road%20"
   },
   "5000128093240":{
      "branchCode":"5000128093240",
      "storeName":"339",
      "monday":"Southbourne, Main Road",
      "tuesday":"06:30-22:00",
      "wednesday":"06:30-22:00",
      "thursday":"06:30-22:00",
      "friday":"06:30-22:00",
      "saturday":"06:30-22:00",
      "sunday":"06:30-22:00",
      "area":"06:30-22:00",
      "areaManager":"8",
      "address":"261 Main Road",
      "town":"Hampshire",
      "county":"PO10 8JD",
      "postcode":"01243 375501",
      "telephone":"0339@southerncoops.co.uk",
      "email":"50.845293",
      "latitude":-0.9103459,
      "longitude":"Yes",
      "carPark":"https://mostlane.sharepoint.com/Mostlane%20Shared%20Documents/Forms/AllItems.aspx?id=%2FMostlane%20Shared%20Documents%2FMostlane%20Construction%2FTSC%20Compliance%2FRetail%2F339%20Southbourne%20Main%20Road"
   },
   "5000128090560":{
      "branchCode":"5000128090560",
      "storeName":"83",
      "monday":"Havant, Middle Park Way",
      "tuesday":"06:00-22:00",
      "wednesday":"06:00-22:00",
      "thursday":"06:00-22:00",
      "friday":"06:00-22:00",
      "saturday":"06:00-22:00",
      "sunday":"06:00-22:00",
      "area":"07:00-22:00",
      "areaManager":"8",
      "address":"13 Middle Park Way",
      "town":"Hampshire",
      "county":"PO9 4AB",
      "postcode":"02392 483738",
      "telephone":"0083@southerncoops.co.uk",
      "email":"50.8650435",
      "latitude":-0.999843,
      "longitude":"No",
      "carPark":"https://mostlane.sharepoint.com/Mostlane%20Shared%20Documents/Forms/AllItems.aspx?id=%2FMostlane%20Shared%20Documents%2FMostlane%20Construction%2FTSC%20Compliance%2FRetail%2F83%20Havant%20Middle%20Park%20Way"
   },
   "5000128090683":{
      "branchCode":"5000128090683",
      "storeName":"69",
      "monday":"Portsmouth, Tregaron Avenue",
      "tuesday":"07:00-22:00",
      "wednesday":"07:00-22:00",
      "thursday":"07:00-22:00",
      "friday":"07:00-22:00",
      "saturday":"07:00-22:00",
      "sunday":"07:00-22:00",
      "area":"07:00-22:00",
      "areaManager":"9",
      "address":"48 Tregaron Avenue",
      "town":"Hampshire",
      "county":"PO6 2NE",
      "postcode":"02392 375393",
      "telephone":"0069@southerncoops.co.uk",
      "email":"50.8428133",
      "latitude":-1.05399,
      "longitude":"No",
      "carPark":"https://mostlane.sharepoint.com/Mostlane%20Shared%20Documents/Forms/AllItems.aspx?id=%2FMostlane%20Shared%20Documents%2FMostlane%20Construction%2FTSC%20Compliance%2FRetail%2F69%20Portsmouth%20Tregaron%20Avenue"
   },
   "5000128092791":{
      "branchCode":"5000128092791",
      "storeName":"305",
      "monday":"Portchester, White Hart Lane ",
      "tuesday":"06:30-22:00",
      "wednesday":"06:30-22:00",
      "thursday":"06:30-22:00",
      "friday":"06:30-22:00",
      "saturday":"06:30-22:00",
      "sunday":"06:30-22:00",
      "area":"07:00-22:00",
      "areaManager":"9",
      "address":"242 White Hart Lane ",
      "town":"Hampshire ",
      "county":"PO16 9AR ",
      "postcode":"02392 383565",
      "telephone":"0305@southerncoops.co.uk",
      "email":"50.8434052",
      "latitude":-1.1366932,
      "longitude":"Yes",
      "carPark":"https://mostlane.sharepoint.com/Mostlane%20Shared%20Documents/Forms/AllItems.aspx?id=%2FMostlane%20Shared%20Documents%2FMostlane%20Construction%2FTSC%20Compliance%2FRetail%2F305%20Portchester%20White%20Hart%20Lane%20"
   },
   "5000128092526":{
      "branchCode":"5000128092526",
      "storeName":"323",
      "monday":"Drayton, Havant Road ",
      "tuesday":"07:00-22:00",
      "wednesday":"07:00-22:00",
      "thursday":"07:00-22:00",
      "friday":"07:00-22:00",
      "saturday":"07:00-22:00",
      "sunday":"07:00-22:00",
      "area":"07:00-22:00",
      "areaManager":"9",
      "address":"192 Havant Rd",
      "town":"Hampshire",
      "county":"PO6 2EH",
      "postcode":"02392 326032",
      "telephone":"0323@southerncoops.co.uk",
      "email":"50.846488",
      "latitude":-1.0500851,
      "longitude":"Yes",
      "carPark":"https://mostlane.sharepoint.com/Mostlane%20Shared%20Documents/Forms/AllItems.aspx?id=%2FMostlane%20Shared%20Documents%2FMostlane%20Construction%2FTSC%20Compliance%2FRetail%2F323%20Drayton%20Havant%20Road%20"
   },
   "5000128092539":{
      "branchCode":"5000128092539",
      "storeName":"325",
      "monday":"Portsmouth, Western Road ",
      "tuesday":"07:00-17:30",
      "wednesday":"07:00-17:30",
      "thursday":"07:00-17:30",
      "friday":"07:00-17:30",
      "saturday":"07:00-17:30",
      "sunday":"CLOSED",
      "area":"CLOSED",
      "areaManager":"9",
      "address":"Central Square ",
      "town":"Hampshire ",
      "county":"PO6 3FE",
      "postcode":"023 9200 0070",
      "telephone":"0325@southerncoops.co.uk",
      "email":"50.841127",
      "latitude":-1.0822069,
      "longitude":"Yes",
      "carPark":"https://mostlane.sharepoint.com/Mostlane%20Shared%20Documents/Forms/AllItems.aspx?id=%2FMostlane%20Shared%20Documents%2FMostlane%20Construction%2FTSC%20Compliance%2FRetail%2F325%20Portsmouth%20Western%20Road%20"
   },
   "5000128090023":{
      "branchCode":"5000128090023",
      "storeName":"2",
      "monday":"Portsmouth, Devonshire Square",
      "tuesday":"06:30-22:00",
      "wednesday":"06:30-22:00",
      "thursday":"06:30-22:00",
      "friday":"06:30-22:00",
      "saturday":"06:30-22:00",
      "sunday":"06:30-22:00",
      "area":"06:30-22:00",
      "areaManager":"9",
      "address":"Devonshire House,",
      "town":"Hampshire",
      "county":"PO4 0JJ",
      "postcode":"02392 828549",
      "telephone":"0002@southerncoops.co.uk",
      "email":"50.7920781",
      "latitude":-1.0704364,
      "longitude":"No",
      "carPark":"https://mostlane.sharepoint.com/Mostlane%20Shared%20Documents/Forms/AllItems.aspx?id=%2FMostlane%20Shared%20Documents%2FMostlane%20Construction%2FTSC%20Compliance%2FRetail%2F2%20Portsmouth%20Devonshire%20Square"
   },
   "5000128090531":{
      "branchCode":"5000128090531",
      "storeName":"6",
      "monday":"Portsmouth, Elm Grove",
      "tuesday":"06:30-22:00",
      "wednesday":"06:30-22:00",
      "thursday":"06:30-22:00",
      "friday":"06:30-22:00",
      "saturday":"06:30-22:00",
      "sunday":"06:30-22:00",
      "area":"10:00-16:00",
      "areaManager":"9",
      "address":"100 - 102 Elm Grove",
      "town":"Hampshire",
      "county":"PO5 1LP",
      "postcode":"02392 750018",
      "telephone":"0006@southerncoops.co.uk",
      "email":"50.7896042",
      "latitude":-1.0854484,
      "longitude":"Yes",
      "carPark":"https://mostlane.sharepoint.com/Mostlane%20Shared%20Documents/Forms/AllItems.aspx?id=%2FMostlane%20Shared%20Documents%2FMostlane%20Construction%2FTSC%20Compliance%2FRetail%2F6%20Portsmouth%20Elm%20Grove"
   },
   "5000128090829":{
      "branchCode":"5000128090829",
      "storeName":"7",
      "monday":"Portsmouth, Eastney Road",
      "tuesday":"06:30-22:00",
      "wednesday":"06:30-22:00",
      "thursday":"06:30-22:00",
      "friday":"06:30-22:00",
      "saturday":"06:30-22:00",
      "sunday":"06:30-22:00",
      "area":"10:00-16:00",
      "areaManager":"9",
      "address":"161 - 167 Eastney Road",
      "town":"Hampshire",
      "county":"PO4 8EA",
      "postcode":"02392 734217",
      "telephone":"0007@southerncoops.co.uk",
      "email":"50.7907168",
      "latitude":-1.0551791,
      "longitude":"No",
      "carPark":"https://mostlane.sharepoint.com/Mostlane%20Shared%20Documents/Forms/AllItems.aspx?id=%2FMostlane%20Shared%20Documents%2FMostlane%20Construction%2FTSC%20Compliance%2FRetail%2F7%20Portsmouth%20Eastney%20Road"
   },
   "5000128090052":{
      "branchCode":"5000128090052",
      "storeName":"8",
      "monday":"Portsmouth, Tangier Road",
      "tuesday":"06:30-22:00",
      "wednesday":"06:30-22:00",
      "thursday":"06:30-22:00",
      "friday":"06:30-22:00",
      "saturday":"06:30-22:00",
      "sunday":"06:30-22:00",
      "area":"06:30-22:00",
      "areaManager":"9",
      "address":"28 - 30 Tangier Road",
      "town":"Hampshire",
      "county":"PO3 6JN",
      "postcode":"02392 669795",
      "telephone":"0008@southerncoops.co.uk",
      "email":"50.808648",
      "latitude":-1.060851,
      "longitude":"No",
      "carPark":"https://mostlane.sharepoint.com/Mostlane%20Shared%20Documents/Forms/AllItems.aspx?id=%2FMostlane%20Shared%20Documents%2FMostlane%20Construction%2FTSC%20Compliance%2FRetail%2F8%20Portsmouth%20Tangier%20Road"
   },
   "5000128090065":{
      "branchCode":"5000128090065",
      "storeName":"9",
      "monday":"Portsmouth, Winter Road",
      "tuesday":"06:30-22:00",
      "wednesday":"06:30-22:00",
      "thursday":"06:30-22:00",
      "friday":"06:30-22:00",
      "saturday":"06:30-22:00",
      "sunday":"06:30-22:00",
      "area":"06:30-22:00",
      "areaManager":"9",
      "address":"111 - 113 Winter Road",
      "town":"Hampshire",
      "county":"PO4 8DS",
      "postcode":"02392 828499",
      "telephone":"0009@southerncoops.co.uk",
      "email":"50.7918861",
      "latitude":-1.0633558,
      "longitude":"No",
      "carPark":"https://mostlane.sharepoint.com/Mostlane%20Shared%20Documents/Forms/AllItems.aspx?id=%2FMostlane%20Shared%20Documents%2FMostlane%20Construction%2FTSC%20Compliance%2FRetail%2F9%20Portsmouth%20Winter%20Road"
   },
   "5000128090094":{
      "branchCode":"5000128090094",
      "storeName":"14",
      "monday":"Portsmouth, Copnor Road 331",
      "tuesday":"06:30-22:00",
      "wednesday":"06:30-22:00",
      "thursday":"06:30-22:00",
      "friday":"06:30-22:00",
      "saturday":"06:30-22:00",
      "sunday":"06:30-22:00",
      "area":"06:30-22:00",
      "areaManager":"9",
      "address":"331 - 333 Copnor Road",
      "town":"Hampshire",
      "county":"PO3 5EQ",
      "postcode":"02392 669793",
      "telephone":"0014@southerncoops.co.uk",
      "email":"50.821994",
      "latitude":-1.0652408,
      "longitude":"No",
      "carPark":"https://mostlane.sharepoint.com/Mostlane%20Shared%20Documents/Forms/AllItems.aspx?id=%2FMostlane%20Shared%20Documents%2FMostlane%20Construction%2FTSC%20Compliance%2FRetail%2F14%20Portsmouth%20Copnor%20Road%20331"
   },
   "5000128091569":{
      "branchCode":"5000128091569",
      "storeName":"18",
      "monday":"Portsmouth, Twyford Avenue",
      "tuesday":"07:00-22:00",
      "wednesday":"07:00-22:00",
      "thursday":"07:00-22:00",
      "friday":"07:00-22:00",
      "saturday":"07:00-22:00",
      "sunday":"07:00-22:00",
      "area":"07:00-22:00",
      "areaManager":"9",
      "address":"236 - 238 Twyford Ave",
      "town":"Hampshire",
      "county":"PO2 8NR",
      "postcode":"02392 669324",
      "telephone":"0018@southerncoops.co.uk",
      "email":"50.8193647",
      "latitude":-1.0843145,
      "longitude":"No",
      "carPark":"https://mostlane.sharepoint.com/Mostlane%20Shared%20Documents/Forms/AllItems.aspx?id=%2FMostlane%20Shared%20Documents%2FMostlane%20Construction%2FTSC%20Compliance%2FRetail%2F18%20Portsmouth%20Twyford%20Avenue"
   },
   "5000128090117":{
      "branchCode":"5000128090117",
      "storeName":"19",
      "monday":"Portsmouth, New Road",
      "tuesday":"06:30-22:00",
      "wednesday":"06:30-22:00",
      "thursday":"06:30-22:00",
      "friday":"06:30-22:00",
      "saturday":"06:30-22:00",
      "sunday":"06:30-22:00",
      "area":"06:30-22:00",
      "areaManager":"9",
      "address":"154 - 158 New Road",
      "town":"Hampshire",
      "county":"PO2 7RJ",
      "postcode":"02392 752339",
      "telephone":"0019@southerncoops.co.uk",
      "email":"50.8090973",
      "latitude":-1.0713021,
      "longitude":"No",
      "carPark":"https://mostlane.sharepoint.com/Mostlane%20Shared%20Documents/Forms/AllItems.aspx?id=%2FMostlane%20Shared%20Documents%2FMostlane%20Construction%2FTSC%20Compliance%2FRetail%2F19%20Portsmouth%20New%20Road"
   },
   "5000128090625":{
      "branchCode":"5000128090625",
      "storeName":"24",
      "monday":"Portsmouth, Fawcett Road",
      "tuesday":"06:30-22:00",
      "wednesday":"06:30-22:00",
      "thursday":"06:30-22:00",
      "friday":"06:30-22:00",
      "saturday":"06:30-22:00",
      "sunday":"06:30-22:00",
      "area":"07:00-22:00",
      "areaManager":"9",
      "address":"155 - 159 Fawcett Road",
      "town":"Hampshire",
      "county":"PO4 0DH",
      "postcode":"02392 839440",
      "telephone":"0024@southerncoops.co.uk",
      "email":"50.7913574",
      "latitude":-1.0761976,
      "longitude":"No",
      "carPark":"https://mostlane.sharepoint.com/Mostlane%20Shared%20Documents/Forms/AllItems.aspx?id=%2FMostlane%20Shared%20Documents%2FMostlane%20Construction%2FTSC%20Compliance%2FRetail%2F24%20Portsmouth%20Fawcett%20Road"
   },
   "5000128090803":{
      "branchCode":"5000128090803",
      "storeName":"42",
      "monday":"Portsmouth, Great Southsea Street",
      "tuesday":"07:00-22:00",
      "wednesday":"07:00-22:00",
      "thursday":"07:00-22:00",
      "friday":"07:00-22:00",
      "saturday":"07:00-22:00",
      "sunday":"07:00-22:00",
      "area":"07:00-22:00",
      "areaManager":"9",
      "address":"56 Great Southsea St",
      "town":"Hampshire",
      "county":"PO5 3BY",
      "postcode":"02392 820943",
      "telephone":"0042@southerncoops.co.uk",
      "email":"50.7894532",
      "latitude":-1.093558,
      "longitude":"No",
      "carPark":"https://mostlane.sharepoint.com/Mostlane%20Shared%20Documents/Forms/AllItems.aspx?id=%2FMostlane%20Shared%20Documents%2FMostlane%20Construction%2FTSC%20Compliance%2FRetail%2F42%20Portsmouth%20Great%20Southsea%20Street"
   },
   "5000128092128":{
      "branchCode":"5000128092128",
      "storeName":"247",
      "monday":"Portsmouth, Northern Parade",
      "tuesday":"06:00-22:00",
      "wednesday":"06:00-22:00",
      "thursday":"06:00-22:00",
      "friday":"06:00-22:00",
      "saturday":"06:00-22:00",
      "sunday":"06:00-22:00",
      "area":"06:00-22:00",
      "areaManager":"9",
      "address":"190 Northern Parade",
      "town":"Hampshire",
      "county":"PO2 9LU",
      "postcode":"02392 639862",
      "telephone":"0247@southerncoops.co.uk",
      "email":"50.8304355",
      "latitude":-1.0742914,
      "longitude":"Yes",
      "carPark":"https://mostlane.sharepoint.com/Mostlane%20Shared%20Documents/Forms/AllItems.aspx?id=%2FMostlane%20Shared%20Documents%2FMostlane%20Construction%2FTSC%20Compliance%2FRetail%2F247%20Portsmouth%20Northern%20Parade"
   },
   "5000128092128":{
      "branchCode":"5000128092128",
      "storeName":"247",
      "monday":"Portsmouth, Northern Parade",
      "tuesday":"06:00-22:00",
      "wednesday":"06:00-22:00",
      "thursday":"06:00-22:00",
      "friday":"06:00-22:00",
      "saturday":"06:00-22:00",
      "sunday":"06:00-22:00",
      "area":"06:00-22:00",
      "areaManager":"9",
      "address":"190 Northern Parade",
      "town":"Hampshire",
      "county":"PO2 9LU",
      "postcode":"02392 639862",
      "telephone":"0247@southerncoops.co.uk",
      "email":"50.8304355",
      "latitude":-1.0742914,
      "longitude":"Yes",
      "carPark":"https://mostlane.sharepoint.com/Mostlane%20Shared%20Documents/Forms/AllItems.aspx?id=%2FMostlane%20Shared%20Documents%2FMostlane%20Construction%2FTSC%20Compliance%2FRetail%2F247%20Portsmouth%20Northern%20Parade"
   },
   "5000128092584":{
      "branchCode":"5000128092584",
      "storeName":"328",
      "monday":"Southsea, Highland Road ",
      "tuesday":"06:30-22:00",
      "wednesday":"06:30-22:00",
      "thursday":"06:30-22:00",
      "friday":"06:30-22:00",
      "saturday":"06:30-22:00",
      "sunday":"06:30-22:00",
      "area":"06:30-22:00",
      "areaManager":"9",
      "address":"84 Highland Road",
      "town":"Hampshire",
      "county":"PO4 9EZ",
      "postcode":"02392 814242",
      "telephone":"0328@southerncoops.co.uk",
      "email":"50.7866187",
      "latitude":-1.0618479,
      "longitude":"Yes",
      "carPark":"https://mostlane.sharepoint.com/Mostlane%20Shared%20Documents/Forms/AllItems.aspx?id=%2FMostlane%20Shared%20Documents%2FMostlane%20Construction%2FTSC%20Compliance%2FRetail%2F328%20Southsea%20Highland%20Road%20"
   },
   "5000128090308":{
      "branchCode":"5000128090308",
      "storeName":"88",
      "monday":"Bognor Regis, Hawthorn Road",
      "tuesday":"06:30-22:00",
      "wednesday":"06:30-22:00",
      "thursday":"06:30-22:00",
      "friday":"06:30-22:00",
      "saturday":"06:30-22:00",
      "sunday":"06:30-22:00",
      "area":"06:30-22:00",
      "areaManager":"10",
      "address":"152 - 156 Hawthorn Rd",
      "town":"West Sussex",
      "county":"PO21 2UR",
      "postcode":"01243 838374",
      "telephone":"0088@southerncoops.co.uk",
      "email":"50.7897503",
      "latitude":-0.6862094,
      "longitude":"Yes",
      "carPark":"https://mostlane.sharepoint.com/Mostlane%20Shared%20Documents/Forms/AllItems.aspx?id=%2FMostlane%20Shared%20Documents%2FMostlane%20Construction%2FTSC%20Compliance%2FRetail%2F88%20Bognor%20Regis%20Hawthorn%20Road"
   },
   "5000128090337":{
      "branchCode":"5000128090337",
      "storeName":"91",
      "monday":"Bognor Regis, Rose Green Road",
      "tuesday":"07:00-22:00",
      "wednesday":"07:00-22:00",
      "thursday":"07:00-22:00",
      "friday":"07:00-22:00",
      "saturday":"07:00-22:00",
      "sunday":"07:00-22:00",
      "area":"07:00-22:00",
      "areaManager":"10",
      "address":"68 Rose Green Road",
      "town":"West Sussex",
      "county":"PO21 3EQ",
      "postcode":"01243 265947",
      "telephone":"0091@southerncoops.co.uk",
      "email":"50.7865215",
      "latitude":-0.7193351,
      "longitude":"No",
      "carPark":"https://mostlane.sharepoint.com/Mostlane%20Shared%20Documents/Forms/AllItems.aspx?id=%2FMostlane%20Shared%20Documents%2FMostlane%20Construction%2FTSC%20Compliance%2FRetail%2F91%20Bognor%20Regis%20Rose%20Green%20Road"
   },
   "5000128090913":{
      "branchCode":"5000128090913",
      "storeName":"309",
      "monday":"Chichester, Oliver Whitby Road ",
      "tuesday":"07:00-22:00",
      "wednesday":"07:00-22:00",
      "thursday":"07:00-22:00",
      "friday":"07:00-22:00",
      "saturday":"07:00-22:00",
      "sunday":"07:00-22:00",
      "area":"07:00-22:00",
      "areaManager":"10",
      "address":"Oliver Whitby Road",
      "town":"West Sussex",
      "county":"PO19 3LB",
      "postcode":"01243 784922",
      "telephone":"0309@southerncoops.co.uk",
      "email":"50.842064",
      "latitude":-0.790649,
      "longitude":"No",
      "carPark":"https://mostlane.sharepoint.com/Mostlane%20Shared%20Documents/Forms/AllItems.aspx?id=%2FMostlane%20Shared%20Documents%2FMostlane%20Construction%2FTSC%20Compliance%2FRetail%2F309%20Chichester%20Oliver%20Whitby%20Road%20"
   },
   "5000128092814":{
      "branchCode":"5000128092814",
      "storeName":"342",
      "monday":"Chichester, Bognor Road ",
      "tuesday":"06:00-22:00",
      "wednesday":"06:00-22:00",
      "thursday":"06:00-22:00",
      "friday":"06:00-22:00",
      "saturday":"06:00-22:00",
      "sunday":"06:00-22:00",
      "area":"06:00-22:00",
      "areaManager":"10",
      "address":"Unit 51/54 Bognor Road ",
      "town":"West Sussex ",
      "county":"PO19 7TG ",
      "postcode":"01243 527097",
      "telephone":"0342@southerncoops.co.uk",
      "email":"50.8335633",
      "latitude":-0.7615594,
      "longitude":"Yes",
      "carPark":"https://mostlane.sharepoint.com/Mostlane%20Shared%20Documents/Forms/AllItems.aspx?id=%2FMostlane%20Shared%20Documents%2FMostlane%20Construction%2FTSC%20Compliance%2FRetail%2F342%20Chichester%20Bognor%20Road%20"
   },
   "5000128092597":{
      "branchCode":"5000128092597",
      "storeName":"352",
      "monday":"Chichester, Spitalfield Lane ",
      "tuesday":"06:00-22:00",
      "wednesday":"06:00-22:00",
      "thursday":"06:00-22:00",
      "friday":"06:00-22:00",
      "saturday":"06:00-22:00",
      "sunday":"06:00-22:00",
      "area":"06:00-22:00",
      "areaManager":"10",
      "address":"Spitalifield Lane ",
      "town":"West Sussex ",
      "county":"PO19 6BF ",
      "postcode":"01243 790431",
      "telephone":"0352@southerncoops.co.uk",
      "email":"50.8410111",
      "latitude":-0.7741065,
      "longitude":"Yes",
      "carPark":"https://mostlane.sharepoint.com/Mostlane%20Shared%20Documents/Forms/AllItems.aspx?id=%2FMostlane%20Shared%20Documents%2FMostlane%20Construction%2FTSC%20Compliance%2FRetail%2F352%20Chichester%20Spitalfield%20Lane%20"
   },
   "5000128093350":{
      "branchCode":"5000128093350",
      "storeName":"414",
      "monday":"Chichester, Lavant Road (PFS)",
      "tuesday":"06:00-22:00",
      "wednesday":"06:00-22:00",
      "thursday":"06:00-22:00",
      "friday":"06:00-22:00",
      "saturday":"06:00-22:00",
      "sunday":"06:00-22:00",
      "area":"06:00-22:00",
      "areaManager":"10",
      "address":"Unit 2, Summersdale Retail Park, ",
      "town":"West Sussex",
      "county":"PO19 5RD",
      "postcode":"01243 539914",
      "telephone":"0414@southerncoops.co.uk",
      "email":"50.8593788",
      "latitude":-0.7842833,
      "longitude":"Yes",
      "carPark":"https://mostlane.sharepoint.com/Mostlane%20Shared%20Documents/Forms/AllItems.aspx?id=%2FMostlane%20Shared%20Documents%2FMostlane%20Construction%2FTSC%20Compliance%2FRetail%2F414%20Chichester%20Lavant%20Road%20%28PFS%29"
   },
   "5000128091750":{
      "branchCode":"5000128091750",
      "storeName":"36",
      "monday":"Ferring, Ferring Street",
      "tuesday":"07:00-22:00",
      "wednesday":"07:00-22:00",
      "thursday":"07:00-22:00",
      "friday":"07:00-22:00",
      "saturday":"07:00-22:00",
      "sunday":"07:00-22:00",
      "area":"07:00-22:00",
      "areaManager":"10",
      "address":"74 - 78 Ferring Street",
      "town":"West Sussex",
      "county":"BN12 5JP",
      "postcode":"01903 245100",
      "telephone":"0036@southerncoops.co.uk",
      "email":"50.8153825",
      "latitude":-0.4470838,
      "longitude":"No",
      "carPark":"https://mostlane.sharepoint.com/Mostlane%20Shared%20Documents/Forms/AllItems.aspx?id=%2FMostlane%20Shared%20Documents%2FMostlane%20Construction%2FTSC%20Compliance%2FRetail%2F36%20Ferring%20Ferring%20Street"
   },
   "5000128091491":{
      "branchCode":"5000128091491",
      "storeName":"49",
      "monday":"Yapton, Main Road",
      "tuesday":"07:00-22:00",
      "wednesday":"07:00-22:00",
      "thursday":"07:00-22:00",
      "friday":"07:00-22:00",
      "saturday":"07:00-22:00",
      "sunday":"07:00-22:00",
      "area":"07:00-22:00",
      "areaManager":"10",
      "address":"Main Road",
      "town":"West Sussex",
      "county":"BN18 0EY",
      "postcode":"01243 554286",
      "telephone":"0049@southerncoops.co.uk",
      "email":"50.8194032",
      "latitude":-0.6101565,
      "longitude":"No",
      "carPark":"https://mostlane.sharepoint.com/Mostlane%20Shared%20Documents/Forms/AllItems.aspx?id=%2FMostlane%20Shared%20Documents%2FMostlane%20Construction%2FTSC%20Compliance%2FRetail%2F49%20Yapton%20Main%20Road"
   },
   "5000128091899":{
      "branchCode":"5000128091899",
      "storeName":"220",
      "monday":"Angmering, The Square",
      "tuesday":"07:00-22:00",
      "wednesday":"07:00-22:00",
      "thursday":"07:00-22:00",
      "friday":"07:00-22:00",
      "saturday":"07:00-22:00",
      "sunday":"07:00-22:00",
      "area":"07:00-22:00",
      "areaManager":"10",
      "address":"The Square",
      "town":"West Sussex",
      "county":"BN16 4EA",
      "postcode":"01903 783665",
      "telephone":"0220@southerncoops.co.uk",
      "email":"50.8288245",
      "latitude":-0.4839959,
      "longitude":"No",
      "carPark":"https://mostlane.sharepoint.com/Mostlane%20Shared%20Documents/Forms/AllItems.aspx?id=%2FMostlane%20Shared%20Documents%2FMostlane%20Construction%2FTSC%20Compliance%2FRetail%2F220%20Angmering%20The%20Square"
   },
   "5000128092393":{
      "branchCode":"5000128092393",
      "storeName":"302",
      "monday":"Falmer, Bramber House",
      "tuesday":"07:00-23:00",
      "wednesday":"07:00-23:00",
      "thursday":"07:00-23:00",
      "friday":"07:00-23:00",
      "saturday":"07:00-23:00",
      "sunday":"07:00-23:00",
      "area":"07:00-23:00",
      "areaManager":"10",
      "address":"Bramber House",
      "town":"East Sussex",
      "county":"BN1 9QU",
      "postcode":"01273 624764",
      "telephone":"0302@southerncoops.co.uk",
      "email":"50.8675456",
      "latitude":-0.0879371,
      "longitude":"No",
      "carPark":"https://mostlane.sharepoint.com/Mostlane%20Shared%20Documents/Forms/AllItems.aspx?id=%2FMostlane%20Shared%20Documents%2FMostlane%20Construction%2FTSC%20Compliance%2FRetail%2F302%20Falmer%20Bramber%20House"
   },
   "5000128090900":{
      "branchCode":"5000128090900",
      "storeName":"308",
      "monday":"Hove, Western Road",
      "tuesday":"06:30-22:30",
      "wednesday":"06:30-22:30",
      "thursday":"06:30-22:30",
      "friday":"06:30-22:30",
      "saturday":"06:30-22:30",
      "sunday":"06:30-22:30",
      "area":"06:30-22:30",
      "areaManager":"10",
      "address":"130 Western Road",
      "town":"East Sussex",
      "county":"BN3 1DA",
      "postcode":"01273 732149",
      "telephone":"0308@southerncoops.co.uk",
      "email":"50.8253201",
      "latitude":-0.1557132,
      "longitude":"No",
      "carPark":"https://mostlane.sharepoint.com/Mostlane%20Shared%20Documents/Forms/AllItems.aspx?id=%2FMostlane%20Shared%20Documents%2FMostlane%20Construction%2FTSC%20Compliance%2FRetail%2F308%20Hove%20Western%20Road"
   },
   "5000128092490":{
      "branchCode":"5000128092490",
      "storeName":"320",
      "monday":"East Preston, Station Parade ",
      "tuesday":"06:30-22:00",
      "wednesday":"06:30-22:00",
      "thursday":"06:30-22:00",
      "friday":"06:30-22:00",
      "saturday":"06:30-22:00",
      "sunday":"06:30-22:00",
      "area":"06:30-22:00",
      "areaManager":"10",
      "address":"Station Parade",
      "town":"West Sussex",
      "county":"BN16 3AE",
      "postcode":"01903 772051",
      "telephone":"0320@southerncoops.co.uk",
      "email":"50.8157942",
      "latitude":-0.4900957,
      "longitude":"Yes",
      "carPark":"https://mostlane.sharepoint.com/Mostlane%20Shared%20Documents/Forms/AllItems.aspx?id=%2FMostlane%20Shared%20Documents%2FMostlane%20Construction%2FTSC%20Compliance%2FRetail%2F320%20East%20Preston%20Station%20Parade%20"
   },
   "5000128092856":{
      "branchCode":"5000128092856",
      "storeName":"346",
      "monday":"Hove, Portland Road",
      "tuesday":"06:30-22:00",
      "wednesday":"06:30-22:00",
      "thursday":"06:30-22:00",
      "friday":"06:30-22:00",
      "saturday":"06:30-22:00",
      "sunday":"06:30-22:00",
      "area":"06:30-22:00",
      "areaManager":"10",
      "address":"268/272 Portland Road",
      "town":"East Sussex",
      "county":"BN3 5QU",
      "postcode":"01273 220092",
      "telephone":"0346@southerncoops.co.uk",
      "email":"50.8339556",
      "latitude":-0.1915928,
      "longitude":"No",
      "carPark":"https://mostlane.sharepoint.com/Mostlane%20Shared%20Documents/Forms/AllItems.aspx?id=%2FMostlane%20Shared%20Documents%2FMostlane%20Construction%2FTSC%20Compliance%2FRetail%2F346%20Hove%20Portland%20Road"
   },
   "5000128092843":{
      "branchCode":"5000128092843",
      "storeName":"338",
      "monday":"Portslade, Abinger Road ",
      "tuesday":"07:00-22:00",
      "wednesday":"07:00-22:00",
      "thursday":"07:00-22:00",
      "friday":"07:00-22:00",
      "saturday":"07:00-22:00",
      "sunday":"07:00-22:00",
      "area":"07:00-22:00",
      "areaManager":"10",
      "address":"103 Abinger Road ",
      "town":"East Sussex",
      "county":"BN41 1SD",
      "postcode":"01273 423457",
      "telephone":"0338@southerncoops.co.uk",
      "email":"50.8357053",
      "latitude":-0.2177477,
      "longitude":"Yes",
      "carPark":"https://mostlane.sharepoint.com/Mostlane%20Shared%20Documents/Forms/AllItems.aspx?id=%2FMostlane%20Shared%20Documents%2FMostlane%20Construction%2FTSC%20Compliance%2FRetail%2F338%20Portslade%20Abinger%20Road%20"
   },
   "5000128092908":{
      "branchCode":"5000128092908",
      "storeName":"368",
      "monday":"Hove, Old Shoreham Road",
      "tuesday":"06:30-22:00",
      "wednesday":"06:30-22:00",
      "thursday":"06:30-22:00",
      "friday":"06:30-22:00",
      "saturday":"06:30-22:00",
      "sunday":"06:30-22:00",
      "area":"06:30-22:00",
      "areaManager":"10",
      "address":"Old Shoreham Road",
      "town":"East Sussex",
      "county":"BN3 7EB",
      "postcode":"01273 728751",
      "telephone":"0368@southerncoops.co.uk",
      "email":"50.8388686",
      "latitude":-0.1876733,
      "longitude":"Yes",
      "carPark":"https://mostlane.sharepoint.com/Mostlane%20Shared%20Documents/Forms/AllItems.aspx?id=%2FMostlane%20Shared%20Documents%2FMostlane%20Construction%2FTSC%20Compliance%2FRetail%2F368%20Hove%20Old%20Shoreham%20Road"
   },
   "5000128090955":{
      "branchCode":"5000128090955",
      "storeName":"355",
      "monday":"Burgess Hill, Junction Road ",
      "tuesday":"07:00-22:00",
      "wednesday":"07:00-22:00",
      "thursday":"07:00-22:00",
      "friday":"07:00-22:00",
      "saturday":"07:00-22:00",
      "sunday":"07:00-22:00",
      "area":"07:00-22:00",
      "areaManager":"11",
      "address":"86 Junction Road ",
      "town":"West Sussex",
      "county":"RH15 0JP",
      "postcode":"01444 242158",
      "telephone":"0355@southerncoops.co.uk",
      "email":"50.9584934",
      "latitude":-0.1232527,
      "longitude":"Yes",
      "carPark":"https://mostlane.sharepoint.com/Mostlane%20Shared%20Documents/Forms/AllItems.aspx?id=%2FMostlane%20Shared%20Documents%2FMostlane%20Construction%2FTSC%20Compliance%2FRetail%2F355%20Burgess%20Hill%20Junction%20Road%20"
   },
   "5000128090968":{
      "branchCode":"5000128090968",
      "storeName":"361",
      "monday":"Burgess Hill, London Road",
      "tuesday":"06:30-22:00",
      "wednesday":"06:30-22:00",
      "thursday":"06:30-22:00",
      "friday":"06:30-22:00",
      "saturday":"06:30-22:00",
      "sunday":"06:30-22:00",
      "area":"06:30-22:00",
      "areaManager":"11",
      "address":"200 London Road ",
      "town":"West Sussex",
      "county":"RH15 9RD",
      "postcode":"01444 870915",
      "telephone":"0361@southerncoops.co.uk",
      "email":"50.9562039",
      "latitude":-0.1381567,
      "longitude":"Yes",
      "carPark":"https://mostlane.sharepoint.com/Mostlane%20Shared%20Documents/Forms/AllItems.aspx?id=%2FMostlane%20Shared%20Documents%2FMostlane%20Construction%2FTSC%20Compliance%2FRetail%2F361%20Burgess%20Hill%20London%20Road"
   },
   "5000128093017":{
      "branchCode":"5000128093017",
      "storeName":"378",
      "monday":"Haywards Heath, Franklynn Road (PFS)",
      "tuesday":"06:00-22:30",
      "wednesday":"06:00-22:30",
      "thursday":"06:00-22:30",
      "friday":"06:00-22:30",
      "saturday":"06:00-22:30",
      "sunday":"06:00-22:30",
      "area":"06:00-22:30",
      "areaManager":"11",
      "address":"104 Franklynn Road",
      "town":"West Sussex",
      "county":"RH16 4DN",
      "postcode":"01444 413502",
      "telephone":"0378@southerncoops.co.uk",
      "email":"50.9933074",
      "latitude":-0.0957253,
      "longitude":"Yes",
      "carPark":"https://mostlane.sharepoint.com/Mostlane%20Shared%20Documents/Forms/AllItems.aspx?id=%2FMostlane%20Shared%20Documents%2FMostlane%20Construction%2FTSC%20Compliance%2FRetail%2F378%20Haywards%20Heath%20Franklynn%20Road%20%28PFS%29"
   },
   "5000128092513":{
      "branchCode":"5000128092513",
      "storeName":"315",
      "monday":"Eastbourne, Seaside ",
      "tuesday":"07:00-22:00",
      "wednesday":"07:00-22:00",
      "thursday":"07:00-22:00",
      "friday":"07:00-22:00",
      "saturday":"07:00-22:00",
      "sunday":"07:00-22:00",
      "area":"07:00-22:00",
      "areaManager":"11",
      "address":"346 Seaside ",
      "town":"East Sussex",
      "county":"BN22 7RJ ",
      "postcode":"01323 410969",
      "telephone":"0315@southerncoops.co.uk",
      "email":"50.7809283",
      "latitude":0.3012525,
      "longitude":"Yes",
      "carPark":"https://mostlane.sharepoint.com/Mostlane%20Shared%20Documents/Forms/AllItems.aspx?id=%2FMostlane%20Shared%20Documents%2FMostlane%20Construction%2FTSC%20Compliance%2FRetail%2F315%20Eastbourne%20Seaside%20"
   },
   "5000128092720":{
      "branchCode":"5000128092720",
      "storeName":"336",
      "monday":"Seasalter, Faversham Road ",
      "tuesday":"06:30-22:00",
      "wednesday":"06:30-22:00",
      "thursday":"06:30-22:00",
      "friday":"06:30-22:00",
      "saturday":"06:30-22:00",
      "sunday":"06:30-22:00",
      "area":"06:30-22:00",
      "areaManager":"11",
      "address":"Faversham Road ",
      "town":"Kent",
      "county":"CT5 4AX",
      "postcode":"01227 274483",
      "telephone":"0336@southerncoops.co.uk",
      "email":"51.3440049",
      "latitude":1.0008606,
      "longitude":"No",
      "carPark":"https://mostlane.sharepoint.com/Mostlane%20Shared%20Documents/Forms/AllItems.aspx?id=%2FMostlane%20Shared%20Documents%2FMostlane%20Construction%2FTSC%20Compliance%2FRetail%2F336%20Seasalter%20Faversham%20Road%20"
   },
   "5000128092759":{
      "branchCode":"5000128092759",
      "storeName":"344",
      "monday":"Wadhurst, Sparrows Green Road ",
      "tuesday":"07:00-22:00",
      "wednesday":"07:00-22:00",
      "thursday":"07:00-22:00",
      "friday":"07:00-22:00",
      "saturday":"07:00-22:00",
      "sunday":"07:00-22:00",
      "area":"07:00-22:00",
      "areaManager":"11",
      "address":"Sparrows Green Road ",
      "town":"East Sussex",
      "county":"TN5 6SJ ",
      "postcode":"01892 785971",
      "telephone":"0344@southerncoops.co.uk",
      "email":"51.0662974",
      "latitude":0.3331027,
      "longitude":"Yes",
      "carPark":"https://mostlane.sharepoint.com/Mostlane%20Shared%20Documents/Forms/AllItems.aspx?id=%2FMostlane%20Shared%20Documents%2FMostlane%20Construction%2FTSC%20Compliance%2FRetail%2F344%20Wadhurst%20Sparrows%20Green%20Road%20"
   },
   "5000128092746":{
      "branchCode":"5000128092746",
      "storeName":"354",
      "monday":"St Leonards, Battle Road 100",
      "tuesday":"07:00-22:00",
      "wednesday":"07:00-22:00",
      "thursday":"07:00-22:00",
      "friday":"07:00-22:00",
      "saturday":"07:00-22:00",
      "sunday":"07:00-22:00",
      "area":"07:00-22:00",
      "areaManager":"11",
      "address":"100 Battle Road ",
      "town":"East Sussex",
      "county":"TN37 7AG ",
      "postcode":"01424 722982",
      "telephone":"0354@southerncoops.co.uk",
      "email":"50.8743098",
      "latitude":0.5531352,
      "longitude":"Yes",
      "carPark":"https://mostlane.sharepoint.com/Mostlane%20Shared%20Documents/Forms/AllItems.aspx?id=%2FMostlane%20Shared%20Documents%2FMostlane%20Construction%2FTSC%20Compliance%2FRetail%2F354%20St%20Leonards%20Battle%20Road%20100"
   },
   "5000128048169":{
      "branchCode":"5000128048169",
      "storeName":"356",
      "monday":"Eastbourne, Lindfield Road ",
      "tuesday":"06:30-22:00",
      "wednesday":"06:30-22:00",
      "thursday":"06:30-22:00",
      "friday":"06:30-22:00",
      "saturday":"06:30-22:00",
      "sunday":"06:30-22:00",
      "area":"06:30-22:00",
      "areaManager":"11",
      "address":"Lindfield Road ",
      "town":"East Sussex",
      "county":"BN22 0AU ",
      "postcode":"01323 505270",
      "telephone":"0356@southerncoops.co.uk",
      "email":"50.7997547",
      "latitude":0.2662767,
      "longitude":"Yes",
      "carPark":"https://mostlane.sharepoint.com/Mostlane%20Shared%20Documents/Forms/AllItems.aspx?id=%2FMostlane%20Shared%20Documents%2FMostlane%20Construction%2FTSC%20Compliance%2FRetail%2F356%20Eastbourne%20Lindfield%20Road%20"
   },
   "5000128090984":{
      "branchCode":"5000128090984",
      "storeName":"363",
      "monday":"St Leonards Battle Road 290",
      "tuesday":"07:00-22:00",
      "wednesday":"07:00-22:00",
      "thursday":"07:00-22:00",
      "friday":"07:00-22:00",
      "saturday":"07:00-22:00",
      "sunday":"07:00-22:00",
      "area":"07:00-22:00",
      "areaManager":"11",
      "address":"290 Battle Road",
      "town":"East Sussex",
      "county":"TN37 7BA",
      "postcode":"01424 854527",
      "telephone":"0363@southerncoops.co.uk",
      "email":"50.88116455",
      "latitude":0.547888875,
      "longitude":"Yes",
      "carPark":"https://mostlane.sharepoint.com/Mostlane%20Shared%20Documents/Forms/AllItems.aspx?id=%2FMostlane%20Shared%20Documents%2FMostlane%20Construction%2FTSC%20Compliance%2FRetail%2F363%20St%20Leonards%20Battle%20Road%20290"
   },
   "5000128093004":{
      "branchCode":"5000128093004",
      "storeName":"379",
      "monday":"Lenham, Faversham Road",
      "tuesday":"07:00-22:00",
      "wednesday":"07:00-22:00",
      "thursday":"07:00-22:00",
      "friday":"07:00-22:00",
      "saturday":"07:00-22:00",
      "sunday":"07:00-22:00",
      "area":"07:00-22:00",
      "areaManager":"11",
      "address":"8 Faversham Road,",
      "town":"Kent",
      "county":"ME17 2PN",
      "postcode":"01622 850242",
      "telephone":"0379@southerncoops.co.uk",
      "email":"51.2378162",
      "latitude":0.7188329,
      "longitude":"Yes",
      "carPark":"https://mostlane.sharepoint.com/Mostlane%20Shared%20Documents/Forms/AllItems.aspx?id=%2FMostlane%20Shared%20Documents%2FMostlane%20Construction%2FTSC%20Compliance%2FRetail%2F379%20Lenham%20Faversham%20Road"
   },
   "5000128093169":{
      "branchCode":"5000128093169",
      "storeName":"389",
      "monday":"Eastbourne, Beatty Road",
      "tuesday":"07:00-22:00",
      "wednesday":"07:00-22:00",
      "thursday":"07:00-22:00",
      "friday":"07:00-22:00",
      "saturday":"07:00-22:00",
      "sunday":"07:00-22:00",
      "area":"07:00-22:00",
      "areaManager":"11",
      "address":"46 Beatty Road, ",
      "town":"East Sussex",
      "county":"BN23 6DG",
      "postcode":"01323 724995",
      "telephone":"0389@southerncoops.co.uk",
      "email":"50.7854873",
      "latitude":0.3184538,
      "longitude":"Yes",
      "carPark":"https://mostlane.sharepoint.com/Mostlane%20Shared%20Documents/Forms/AllItems.aspx?id=%2FMostlane%20Shared%20Documents%2FMostlane%20Construction%2FTSC%20Compliance%2FRetail%2F389%20Eastbourne%20Beatty%20Road"
   },
   "5000128093305":{
      "branchCode":"5000128093305",
      "storeName":"402",
      "monday":"Minster, Monkton Road ",
      "tuesday":"07:00-21:00",
      "wednesday":"07:00-21:00",
      "thursday":"07:00-21:00",
      "friday":"07:00-21:00",
      "saturday":"07:00-21:00",
      "sunday":"07:00-21:00",
      "area":"08:00-21:00",
      "areaManager":"11",
      "address":"11 Monkton Road,",
      "town":"Kent",
      "county":"CT12 4EA",
      "postcode":"01843 823677",
      "telephone":"0402@southerncoops.co.uk",
      "email":"51.3347854",
      "latitude":1.3128876,
      "longitude":"No",
      "carPark":"https://mostlane.sharepoint.com/Mostlane%20Shared%20Documents/Forms/AllItems.aspx?id=%2FMostlane%20Shared%20Documents%2FMostlane%20Construction%2FTSC%20Compliance%2FRetail%2F402%20Minster%20Monkton%20Road%20"
   },
   "5000128090078":{
      "branchCode":"5000128090078",
      "storeName":"410",
      "monday":"Ashford, Loudon Way",
      "tuesday":"07:00-22:00",
      "wednesday":"07:00-22:00",
      "thursday":"07:00-22:00",
      "friday":"07:00-22:00",
      "saturday":"07:00-22:00",
      "sunday":"07:00-22:00",
      "area":"07:00-22:00",
      "areaManager":"11",
      "address":"Co-op",
      "town":"Kent",
      "county":"TN23 3JJ",
      "postcode":"01233 641485",
      "telephone":"0410@southerncoops.co.uk",
      "email":"51.153992",
      "latitude":0.846621,
      "longitude":"Yes",
      "carPark":"https://mostlane.sharepoint.com/Mostlane%20Shared%20Documents/Forms/AllItems.aspx?id=%2FMostlane%20Shared%20Documents%2FMostlane%20Construction%2FTSC%20Compliance%2FRetail%2F410%20Ashford%20Loudon%20Way"
   },
   "":{
      "branchCode":"",
      "storeName":"413",
      "monday":"Whitstable, Cromwell Road",
      "tuesday":"07:00-22:00",
      "wednesday":"07:00-22:00",
      "thursday":"07:00-22:00",
      "friday":"07:00-22:00",
      "saturday":"07:00-22:00",
      "sunday":"07:00-22:00",
      "area":"07:00-22:00",
      "areaManager":"11",
      "address":"134 Cromwell Road,",
      "town":"Kent",
      "county":"CT5 1NQ",
      "postcode":"01227 277122",
      "telephone":"0413@southerncoops.co.uk",
      "email":"51.3588031",
      "latitude":1.0305322,
      "longitude":"Yes",
      "carPark":"https://mostlane.sharepoint.com/Mostlane%20Shared%20Documents/Forms/AllItems.aspx?id=%2FMostlane%20Shared%20Documents%2FMostlane%20Construction%2FTSC%20Compliance%2FRetail%2F413%20Whitstable%20Cromwell%20Road"
   },
   "5000128093033":{
      "branchCode":"5000128093033",
      "storeName":"370",
      "monday":"Reigate, London Road",
      "tuesday":"07:00-22:00",
      "wednesday":"07:00-22:00",
      "thursday":"07:00-22:00",
      "friday":"07:00-22:00",
      "saturday":"07:00-22:00",
      "sunday":"07:00-22:00",
      "area":"07:00-22:00",
      "areaManager":"12",
      "address":"Trinity House, 61 London Road",
      "town":"Surrey",
      "county":"RH2 9PR",
      "postcode":"01737 226720",
      "telephone":"0370@southerncoops.co.uk",
      "email":"51.24381",
      "latitude":-0.20493,
      "longitude":"Yes",
      "carPark":"https://mostlane.sharepoint.com/Mostlane%20Shared%20Documents/Forms/AllItems.aspx?id=%2FMostlane%20Shared%20Documents%2FMostlane%20Construction%2FTSC%20Compliance%2FRetail%2F370%20Reigate%20London%20Road"
   },
   "5000128092144":{
      "branchCode":"5000128092144",
      "storeName":"172",
      "monday":"Banstead, Nork Way",
      "tuesday":"06:30-22:00",
      "wednesday":"06:30-22:00",
      "thursday":"06:30-22:00",
      "friday":"06:30-22:00",
      "saturday":"06:30-22:00",
      "sunday":"06:30-22:00",
      "area":"06:30-22:00",
      "areaManager":"12",
      "address":"1 Nork Way",
      "town":"Surrey",
      "county":"SM7 1PB",
      "postcode":"01737 354631",
      "telephone":"0172@southerncoops.co.uk",
      "email":"51.32824",
      "latitude":-0.215207,
      "longitude":"Yes",
      "carPark":"https://mostlane.sharepoint.com/Mostlane%20Shared%20Documents/Forms/AllItems.aspx?id=%2FMostlane%20Shared%20Documents%2FMostlane%20Construction%2FTSC%20Compliance%2FRetail%2F172%20Banstead%20Nork%20Way"
   },
   "5000128092186":{
      "branchCode":"5000128092186",
      "storeName":"176",
      "monday":"Windsor, Arthur Road",
      "tuesday":"06:30-22:00",
      "wednesday":"06:30-22:00",
      "thursday":"06:30-22:00",
      "friday":"06:30-22:00",
      "saturday":"06:30-22:00",
      "sunday":"06:30-22:00",
      "area":"06:30-22:00",
      "areaManager":"12",
      "address":"72-74 Arthur Road",
      "town":"Berkshire",
      "county":"SL4  1RX",
      "postcode":"01753 865167",
      "telephone":"0176@southerncoops.co.uk",
      "email":"51.4826477",
      "latitude":-0.6155554,
      "longitude":"Yes",
      "carPark":"https://mostlane.sharepoint.com/Mostlane%20Shared%20Documents/Forms/AllItems.aspx?id=%2FMostlane%20Shared%20Documents%2FMostlane%20Construction%2FTSC%20Compliance%2FRetail%2F176%20Windsor%20Arthur%20Road"
   },
   "5000128092872":{
      "branchCode":"5000128092872",
      "storeName":"319",
      "monday":"West Ewell, Ruxley Lane",
      "tuesday":"07:00-22:00",
      "wednesday":"07:00-22:00",
      "thursday":"07:00-22:00",
      "friday":"07:00-22:00",
      "saturday":"07:00-22:00",
      "sunday":"07:00-22:00",
      "area":"07:00-22:00",
      "areaManager":"12",
      "address":"138 Ruxley Lane",
      "town":"Surrey",
      "county":"KT19 9JS",
      "postcode":"02083 974528",
      "telephone":"0319@southerncoops.co.uk",
      "email":"51.3638007",
      "latitude":-0.2744566,
      "longitude":"Yes",
      "carPark":"https://mostlane.sharepoint.com/Mostlane%20Shared%20Documents/Forms/AllItems.aspx?id=%2FMostlane%20Shared%20Documents%2FMostlane%20Construction%2FTSC%20Compliance%2FRetail%2F319%20West%20Ewell%20Ruxley%20Lane"
   },
   "5000128093321":{
      "branchCode":"5000128093321",
      "storeName":"340",
      "monday":"Sidcup, The Oval",
      "tuesday":"07:00-22:00",
      "wednesday":"07:00-22:00",
      "thursday":"07:00-22:00",
      "friday":"07:00-22:00",
      "saturday":"07:00-22:00",
      "sunday":"07:00-22:00",
      "area":"07:00-22:00",
      "areaManager":"12",
      "address":"51 The Oval",
      "town":"Kent",
      "county":"DA15 9ER",
      "postcode":"020 8300 8839",
      "telephone":"0340@southerncoops.co.uk",
      "email":"51.4454457",
      "latitude":0.1029672,
      "longitude":"No",
      "carPark":"https://mostlane.sharepoint.com/Mostlane%20Shared%20Documents/Forms/AllItems.aspx?id=%2FMostlane%20Shared%20Documents%2FMostlane%20Construction%2FTSC%20Compliance%2FRetail%2F340%20Sidcup%20The%20Oval"
   },
   "5000128093075":{
      "branchCode":"5000128093075",
      "storeName":"383",
      "monday":"Addlestone, Church Road",
      "tuesday":"07:00-22:00",
      "wednesday":"07:00-22:00",
      "thursday":"07:00-22:00",
      "friday":"07:00-22:00",
      "saturday":"07:00-22:00",
      "sunday":"07:00-22:00",
      "area":"07:00-22:00",
      "areaManager":"12",
      "address":"100 - 106 Church Road,",
      "town":"Surrey",
      "county":"KT15 1SG",
      "postcode":"01932 850804",
      "telephone":"0383@southerncoops.co.uk",
      "email":"51.3694173",
      "latitude":-0.4986265,
      "longitude":"Yes",
      "carPark":"https://mostlane.sharepoint.com/Mostlane%20Shared%20Documents/Forms/AllItems.aspx?id=%2FMostlane%20Shared%20Documents%2FMostlane%20Construction%2FTSC%20Compliance%2FRetail%2F383%20Addlestone%20Church%20Road"
   },
   "5000128093088":{
      "branchCode":"5000128093088",
      "storeName":"384",
      "monday":"Addlestone, New Haw Road",
      "tuesday":"07:00-22:00",
      "wednesday":"07:00-22:00",
      "thursday":"07:00-22:00",
      "friday":"07:00-22:00",
      "saturday":"07:00-22:00",
      "sunday":"07:00-22:00",
      "area":"07:00-22:00",
      "areaManager":"12",
      "address":"Unit 1, 210 New Haw Road",
      "town":"Surrey",
      "county":"KT15 2DS",
      "postcode":"01932 847239 ",
      "telephone":"0384@southerncoops.co.uk",
      "email":"51.3580604",
      "latitude":-0.4870356,
      "longitude":"Yes",
      "carPark":"https://mostlane.sharepoint.com/Mostlane%20Shared%20Documents/Forms/AllItems.aspx?id=%2FMostlane%20Shared%20Documents%2FMostlane%20Construction%2FTSC%20Compliance%2FRetail%2F384%20Addlestone%20New%20Haw%20Road"
   },
   "5000128093208":{
      "branchCode":"5000128093208",
      "storeName":"394",
      "monday":"Staines, Laleham Road",
      "tuesday":"07:00-22:00",
      "wednesday":"07:00-22:00",
      "thursday":"07:00-22:00",
      "friday":"07:00-22:00",
      "saturday":"07:00-22:00",
      "sunday":"07:00-22:00",
      "area":"07:00-22:00",
      "areaManager":"12",
      "address":"Ground Floor Retail Unit,",
      "town":"Surrey",
      "county":"TW18 2PA",
      "postcode":"01784 455305",
      "telephone":"0394@southerncoops.co.uk",
      "email":"51.4207355",
      "latitude":-0.499672,
      "longitude":"Yes",
      "carPark":"https://mostlane.sharepoint.com/Mostlane%20Shared%20Documents/Forms/AllItems.aspx?id=%2FMostlane%20Shared%20Documents%2FMostlane%20Construction%2FTSC%20Compliance%2FRetail%2F394%20Staines%20Laleham%20Road"
   },
   "5000128093253":{
      "branchCode":"5000128093253",
      "storeName":"401",
      "monday":"Chertsey, Fordwater Road",
      "tuesday":"07:00-22:00",
      "wednesday":"07:00-22:00",
      "thursday":"07:00-22:00",
      "friday":"07:00-22:00",
      "saturday":"07:00-22:00",
      "sunday":"07:00-22:00",
      "area":"07:00-22:00",
      "areaManager":"12",
      "address":"1 Fordwater Road,",
      "town":"Surrey",
      "county":"KT16 8HW",
      "postcode":"01932 567961",
      "telephone":"0401@southerncoops.co.uk",
      "email":"51.3880287",
      "latitude":-0.4947491,
      "longitude":"Yes",
      "carPark":"https://mostlane.sharepoint.com/Mostlane%20Shared%20Documents/Forms/AllItems.aspx?id=%2FMostlane%20Shared%20Documents%2FMostlane%20Construction%2FTSC%20Compliance%2FRetail%2F401%20Chertsey%20Fordwater%20Road"
   },
   "5000128093295":{
      "branchCode":"5000128093295",
      "storeName":"404",
      "monday":"Wimbledon, Ridgway",
      "tuesday":"07:00-22:00",
      "wednesday":"07:00-22:00",
      "thursday":"07:00-22:00",
      "friday":"07:00-22:00",
      "saturday":"07:00-22:00",
      "sunday":"07:00-22:00",
      "area":"07:00-22:00",
      "areaManager":"12",
      "address":"83 Ridgway,",
      "town":"London",
      "county":"SW19 4ST",
      "postcode":"020 8947 7420",
      "telephone":"0404@southerncoops.co.uk",
      "email":"51.421082",
      "latitude":-0.220281,
      "longitude":"No",
      "carPark":"https://mostlane.sharepoint.com/Mostlane%20Shared%20Documents/Forms/AllItems.aspx?id=%2FMostlane%20Shared%20Documents%2FMostlane%20Construction%2FTSC%20Compliance%2FRetail%2F404%20Wimbledon%20Ridgway"
   },
   "5000128090104":{
      "branchCode":"5000128090104",
      "storeName":"412",
      "monday":"Chislehurst, White Horse Hill",
      "tuesday":"06:30-22:00",
      "wednesday":"06:30-22:00",
      "thursday":"06:30-22:00",
      "friday":"06:30-22:00",
      "saturday":"06:30-22:00",
      "sunday":"06:30-22:00",
      "area":"06:30-22:00",
      "areaManager":"12",
      "address":"1-3 White Horse Hill,",
      "town":"London",
      "county":"BR7 6DG",
      "postcode":"020 84670331",
      "telephone":"0412@southerncoops.co.uk",
      "email":"51.4219804",
      "latitude":0.0617969,
      "longitude":"Yes",
      "carPark":"https://mostlane.sharepoint.com/Mostlane%20Shared%20Documents/Forms/AllItems.aspx?id=%2FMostlane%20Shared%20Documents%2FMostlane%20Construction%2FTSC%20Compliance%2FRetail%2F412%20Chislehurst%20White%20Horse%20Hill"
   },
   "5000128092555":{
      "branchCode":"5000128092555",
      "storeName":"326",
      "monday":"Chobham, Bagshot Road ",
      "tuesday":"07:00-22:00",
      "wednesday":"07:00-22:00",
      "thursday":"07:00-22:00",
      "friday":"07:00-22:00",
      "saturday":"07:00-22:00",
      "sunday":"07:00-22:00",
      "area":"07:00-22:00",
      "areaManager":"12",
      "address":"2 Bagshot Road",
      "town":"Surrey",
      "county":"GU24 8BZ ",
      "postcode":"01276 855298",
      "telephone":"0326@southerncoops.co.uk",
      "email":"51.3479806",
      "latitude":-0.6043504,
      "longitude":"Yes",
      "carPark":"https://mostlane.sharepoint.com/Mostlane%20Shared%20Documents/Forms/AllItems.aspx?id=%2FMostlane%20Shared%20Documents%2FMostlane%20Construction%2FTSC%20Compliance%2FRetail%2F326%20Chobham%20Bagshot%20Road%20"
   },
   "5000128093457":{
      "branchCode":"5000128093457",
      "storeName":"428",
      "monday":"Guildford, Woodbridge Road (PFS)",
      "tuesday":"06:00 - 00:00",
      "wednesday":"06:00 - 00:00",
      "thursday":"06:00 - 00:00",
      "friday":"06:00 - 00:00",
      "saturday":"06:00 - 00:00",
      "sunday":"06:00 - 00:00",
      "area":"07:00 - 23:0",
      "areaManager":"12",
      "address":"45 Woodbridge Road",
      "town":"Surrey",
      "county":"GU1 4RN",
      "postcode":"01483 504603",
      "telephone":"0428@southerncoops.co.uk",
      "email":"51.2427662",
      "latitude":-0.5758832,
      "longitude":"Yes",
      "carPark":"https://mostlane.sharepoint.com/Mostlane%20Shared%20Documents/Forms/AllItems.aspx?id=%2FMostlane%20Shared%20Documents%2FMostlane%20Construction%2FTSC%20Compliance%2FRetail%2F428%20Guildford%20Woodbridge%20Road%20%28PFS%29"
   },
   "5000128091857":{
      "branchCode":"5000128091857",
      "storeName":"110",
      "monday":"Alresford, West Street",
      "tuesday":"07:00-22:00",
      "wednesday":"07:00-22:00",
      "thursday":"07:00-22:00",
      "friday":"07:00-22:00",
      "saturday":"07:00-22:00",
      "sunday":"07:00-22:00",
      "area":"10:00-16:00",
      "areaManager":"13",
      "address":"47 West Street",
      "town":"Hampshire",
      "county":"SO24 9BT",
      "postcode":"01962 733078",
      "telephone":"0110@southerncoops.co.uk",
      "email":"51.0898751",
      "latitude":-1.1640358,
      "longitude":"Yes",
      "carPark":"https://mostlane.sharepoint.com/Mostlane%20Shared%20Documents/Forms/AllItems.aspx?id=%2FMostlane%20Shared%20Documents%2FMostlane%20Construction%2FTSC%20Compliance%2FRetail%2F110%20Alresford%20West%20Street"
   },
   "5000128091514":{
      "branchCode":"5000128091514",
      "storeName":"105",
      "monday":"Alton, High Street",
      "tuesday":"06:30-22:00",
      "wednesday":"06:30-22:00",
      "thursday":"06:30-22:00",
      "friday":"06:30-22:00",
      "saturday":"06:30-22:00",
      "sunday":"06:30-22:00",
      "area":"06:30-22:00",
      "areaManager":"13",
      "address":"34E High Street",
      "town":"Hampshire",
      "county":"GU34 1BD",
      "postcode":"01420 541260",
      "telephone":"0105@southerncoops.co.uk",
      "email":"51.149125",
      "latitude":-0.975315,
      "longitude":"No",
      "carPark":"https://mostlane.sharepoint.com/Mostlane%20Shared%20Documents/Forms/AllItems.aspx?id=%2FMostlane%20Shared%20Documents%2FMostlane%20Construction%2FTSC%20Compliance%2FRetail%2F105%20Alton%20High%20Street"
   },
   "5000128091514":{
      "branchCode":"5000128091514",
      "storeName":"105",
      "monday":"Alton, High Street",
      "tuesday":"06:30-22:00",
      "wednesday":"06:30-22:00",
      "thursday":"06:30-22:00",
      "friday":"06:30-22:00",
      "saturday":"06:30-22:00",
      "sunday":"06:30-22:00",
      "area":"06:30-22:00",
      "areaManager":"13",
      "address":"34E High Street",
      "town":"Hampshire",
      "county":"GU34 1BD",
      "postcode":"01420 541260",
      "telephone":"0105@southerncoops.co.uk",
      "email":"51.149125",
      "latitude":-0.975315,
      "longitude":"No",
      "carPark":"https://mostlane.sharepoint.com/Mostlane%20Shared%20Documents/Forms/AllItems.aspx?id=%2FMostlane%20Shared%20Documents%2FMostlane%20Construction%2FTSC%20Compliance%2FRetail%2F105%20Alton%20High%20Street"
   },
   "5000128092869":{
      "branchCode":"5000128092869",
      "storeName":"351",
      "monday":"Four Marks, Winchester Road",
      "tuesday":"06:30-22:00",
      "wednesday":"06:30-22:00",
      "thursday":"06:30-22:00",
      "friday":"06:30-22:00",
      "saturday":"06:30-22:00",
      "sunday":"06:30-22:00",
      "area":"06:30-22:00",
      "areaManager":"13",
      "address":"30 Winchester Road ",
      "town":"Hampshire ",
      "county":"GU34 5HG",
      "postcode":"01420 561380",
      "telephone":"0351@southerncoops.co.uk",
      "email":"51.1130258",
      "latitude":-1.0424103,
      "longitude":"Yes",
      "carPark":"https://mostlane.sharepoint.com/Mostlane%20Shared%20Documents/Forms/AllItems.aspx?id=%2FMostlane%20Shared%20Documents%2FMostlane%20Construction%2FTSC%20Compliance%2FRetail%2F351%20Four%20Marks%20Winchester%20Road"
   },
   "5000128092500":{
      "branchCode":"5000128092500",
      "storeName":"317",
      "monday":"Horsham, Guildford Road",
      "tuesday":"07:00-22:00",
      "wednesday":"07:00-22:00",
      "thursday":"07:00-22:00",
      "friday":"07:00-22:00",
      "saturday":"07:00-22:00",
      "sunday":"07:00-22:00",
      "area":"07:00-22:00",
      "areaManager":"13",
      "address":"Unit 1 Tanfeld Centre ",
      "town":"West Sussex",
      "county":"RH12 1TR ",
      "postcode":"01403 262751",
      "telephone":"0317@southerncoops.co.uk",
      "email":"51.06474",
      "latitude":-0.3376714,
      "longitude":"Yes",
      "carPark":"https://mostlane.sharepoint.com/Mostlane%20Shared%20Documents/Forms/AllItems.aspx?id=%2FMostlane%20Shared%20Documents%2FMostlane%20Construction%2FTSC%20Compliance%2FRetail%2F317%20Horsham%20Guildford%20Road"
   },
   "5000128231206":{
      "branchCode":"5000128231206",
      "storeName":"425",
      "monday":"Broadbridge Heath, Wickhurst Square",
      "tuesday":"07:00-22:00",
      "wednesday":"07:00-22:00",
      "thursday":"07:00-22:00",
      "friday":"07:00-22:00",
      "saturday":"07:00-22:00",
      "sunday":"07:00-22:00",
      "area":"07:00-22:00",
      "areaManager":"13",
      "address":"Unit 5, Wickhurst Square, Sargent Way",
      "town":"West Sussex",
      "county":"RH12 3XS",
      "postcode":"01403 243335",
      "telephone":"0425@southerncoops.co.uk",
      "email":"51.0665716",
      "latitude":-0.3636866,
      "longitude":"Yes",
      "carPark":"https://mostlane.sharepoint.com/Mostlane%20Shared%20Documents/Forms/AllItems.aspx?id=%2FMostlane%20Shared%20Documents%2FMostlane%20Construction%2FTSC%20Compliance%2FRetail%2F425%20Broadbridge%20Heath%20Wickhurst%20Square"
   },
   "5000128090418":{
      "branchCode":"5000128090418",
      "storeName":"77",
      "monday":"Moggs Mead, The Crundles",
      "tuesday":"07:00-22:00",
      "wednesday":"07:00-22:00",
      "thursday":"07:00-22:00",
      "friday":"07:00-22:00",
      "saturday":"07:00-22:00",
      "sunday":"07:00-22:00",
      "area":"07:00-22:00",
      "areaManager":"13",
      "address":"11 The Crundles",
      "town":"Hampshire",
      "county":"GU31 4PJ",
      "postcode":"01730 269739",
      "telephone":"0077@southerncoops.co.uk",
      "email":"51.0055457",
      "latitude":-0.9255609,
      "longitude":"Yes",
      "carPark":"https://mostlane.sharepoint.com/Mostlane%20Shared%20Documents/Forms/AllItems.aspx?id=%2FMostlane%20Shared%20Documents%2FMostlane%20Construction%2FTSC%20Compliance%2FRetail%2F77%20Moggs%20Mead%20The%20Crundles"
   },
   "5000128090434":{
      "branchCode":"5000128090434",
      "storeName":"78",
      "monday":"Liphook, Headley Road",
      "tuesday":"07:00-22:00",
      "wednesday":"07:00-22:00",
      "thursday":"07:00-22:00",
      "friday":"07:00-22:00",
      "saturday":"07:00-22:00",
      "sunday":"07:00-22:00",
      "area":"07:00-22:00",
      "areaManager":"13",
      "address":"64 Headley Road",
      "town":"Hampshire",
      "county":"GU30 7NP",
      "postcode":"01428 722905",
      "telephone":"0078@southerncoops.co.uk",
      "email":"51.0803409",
      "latitude":-0.804509,
      "longitude":"Yes",
      "carPark":"https://mostlane.sharepoint.com/Mostlane%20Shared%20Documents/Forms/AllItems.aspx?id=%2FMostlane%20Shared%20Documents%2FMostlane%20Construction%2FTSC%20Compliance%2FRetail%2F78%20Liphook%20Headley%20Road"
   },
   "5000128090272":{
      "branchCode":"5000128090272",
      "storeName":"306",
      "monday":"Farnham, Farnborough Road",
      "tuesday":"07:00-22:00",
      "wednesday":"07:00-22:00",
      "thursday":"07:00-22:00",
      "friday":"07:00-22:00",
      "saturday":"07:00-22:00",
      "sunday":"07:00-22:00",
      "area":"07:00-22:00",
      "areaManager":"13",
      "address":"47 - 51 Farnborough Road",
      "town":"Surrey",
      "county":"GU9 9AJ",
      "postcode":"01252 712394",
      "telephone":"0306@southerncoops.co.uk",
      "email":"51.2346107",
      "latitude":-0.7852534,
      "longitude":"Yes",
      "carPark":"https://mostlane.sharepoint.com/Mostlane%20Shared%20Documents/Forms/AllItems.aspx?id=%2FMostlane%20Shared%20Documents%2FMostlane%20Construction%2FTSC%20Compliance%2FRetail%2F306%20Farnham%20Farnborough%20Road"
   },
   "5000128092649":{
      "branchCode":"5000128092649",
      "storeName":"330",
      "monday":"Aldershot, Lower Farnham Road ",
      "tuesday":"06:30-22:00",
      "wednesday":"06:30-22:00",
      "thursday":"06:30-22:00",
      "friday":"06:30-22:00",
      "saturday":"06:30-22:00",
      "sunday":"06:30-22:00",
      "area":"06:30-22:00",
      "areaManager":"13",
      "address":"222 Lower Farnham Road",
      "town":"Hampshire",
      "county":"GU12 4EN ",
      "postcode":"01252 316748",
      "telephone":"0330@southerncoops.co.uk",
      "email":"51.2371888",
      "latitude":-0.7520202,
      "longitude":"Yes",
      "carPark":"https://mostlane.sharepoint.com/Mostlane%20Shared%20Documents/Forms/AllItems.aspx?id=%2FMostlane%20Shared%20Documents%2FMostlane%20Construction%2FTSC%20Compliance%2FRetail%2F330%20Aldershot%20Lower%20Farnham%20Road%20"
   },
   "5000128092681":{
      "branchCode":"5000128092681",
      "storeName":"331",
      "monday":"Camberley, Frimley Road ",
      "tuesday":"06:30-22:00",
      "wednesday":"06:30-22:00",
      "thursday":"06:30-22:00",
      "friday":"06:30-22:00",
      "saturday":"06:30-22:00",
      "sunday":"06:30-22:00",
      "area":"06:30-22:00",
      "areaManager":"13",
      "address":"19 Frimley Road",
      "town":"Surrey",
      "county":"GU15 3EN ",
      "postcode":"01276 469785",
      "telephone":"0331@southerncoops.co.uk",
      "email":"51.3350708",
      "latitude":-0.7599162,
      "longitude":"Yes",
      "carPark":"https://mostlane.sharepoint.com/Mostlane%20Shared%20Documents/Forms/AllItems.aspx?id=%2FMostlane%20Shared%20Documents%2FMostlane%20Construction%2FTSC%20Compliance%2FRetail%2F331%20Camberley%20Frimley%20Road%20"
   },
   "5000128639167":{
      "branchCode":"5000128639167",
      "storeName":"357",
      "monday":"Wrecclesham Wrecclesham Road",
      "tuesday":"06:00-22:00",
      "wednesday":"06:00-22:00",
      "thursday":"06:00-22:00",
      "friday":"06:00-22:00",
      "saturday":"06:00-22:00",
      "sunday":"06:00-22:00",
      "area":"06:00-22:00",
      "areaManager":"13",
      "address":"Unit 1 Grovebell Estate",
      "town":"Surrey",
      "county":"GU10 4PL",
      "postcode":"01252 714192",
      "telephone":"0357@southerncoops.co.uk",
      "email":"51.2013328",
      "latitude":-0.8175418,
      "longitude":"Yes",
      "carPark":"https://mostlane.sharepoint.com/Mostlane%20Shared%20Documents/Forms/AllItems.aspx?id=%2FMostlane%20Shared%20Documents%2FMostlane%20Construction%2FTSC%20Compliance%2FRetail%2F357%20Wrecclesham%20Wrecclesham%20Road"
   },
   "5000128639293":{
      "branchCode":"5000128639293",
      "storeName":"365",
      "monday":"Odiham, High Street",
      "tuesday":"07:00-22:00",
      "wednesday":"07:00-22:00",
      "thursday":"07:00-22:00",
      "friday":"07:00-22:00",
      "saturday":"07:00-22:00",
      "sunday":"07:00-22:00",
      "area":"07:00-22:00",
      "areaManager":"13",
      "address":"56, High Street",
      "town":"Hampshire",
      "county":"RG29 1HW",
      "postcode":"01256 704061",
      "telephone":"0365@southerncoops.co.uk",
      "email":"51.2542669",
      "latitude":-0.9384405,
      "longitude":"Yes",
      "carPark":"https://mostlane.sharepoint.com/Mostlane%20Shared%20Documents/Forms/AllItems.aspx?id=%2FMostlane%20Shared%20Documents%2FMostlane%20Construction%2FTSC%20Compliance%2FRetail%2F365%20Odiham%20High%20Street"
   },
   "5000128092982":{
      "branchCode":"5000128092982",
      "storeName":"376",
      "monday":"Rowledge, The Square",
      "tuesday":"07:00-22:00",
      "wednesday":"07:00-22:00",
      "thursday":"07:00-22:00",
      "friday":"07:00-22:00",
      "saturday":"07:00-22:00",
      "sunday":"07:00-22:00",
      "area":"08:00-21:00",
      "areaManager":"13",
      "address":"4 The Square",
      "town":"Surrey",
      "county":"GU10 4AA",
      "postcode":"01252 794536",
      "telephone":"0376@southerncoops.co.uk",
      "email":"51.18341064",
      "latitude":-0.82323902,
      "longitude":"No",
      "carPark":"https://mostlane.sharepoint.com/Mostlane%20Shared%20Documents/Forms/AllItems.aspx?id=%2FMostlane%20Shared%20Documents%2FMostlane%20Construction%2FTSC%20Compliance%2FRetail%2F376%20Rowledge%20The%20Square"
   },
   "5000128093334":{
      "branchCode":"5000128093334",
      "storeName":"382",
      "monday":"Binfield, Forest Road",
      "tuesday":"07:00-22:00",
      "wednesday":"07:00-22:00",
      "thursday":"07:00-22:00",
      "friday":"07:00-22:00",
      "saturday":"07:00-22:00",
      "sunday":"07:00-22:00",
      "area":"07:00-22:00",
      "areaManager":"13",
      "address":"Forest Road,",
      "town":"Berkshire",
      "county":"RG42 4HP",
      "postcode":"01344 360952",
      "telephone":"0382@southerncoops.co.uk",
      "email":"51.431409",
      "latitude":-0.7897865,
      "longitude":"Yes",
      "carPark":"https://mostlane.sharepoint.com/Mostlane%20Shared%20Documents/Forms/AllItems.aspx?id=%2FMostlane%20Shared%20Documents%2FMostlane%20Construction%2FTSC%20Compliance%2FRetail%2F382%20Binfield%20Forest%20Road"
   },
   "5000128093211":{
      "branchCode":"5000128093211",
      "storeName":"395",
      "monday":"Wokingham, Market Place",
      "tuesday":"07:00-22:00",
      "wednesday":"07:00-22:00",
      "thursday":"07:00-22:00",
      "friday":"07:00-22:00",
      "saturday":"07:00-22:00",
      "sunday":"07:00-22:00",
      "area":"07:00-22:00",
      "areaManager":"13",
      "address":"9&10 Market Place, ",
      "town":"Berkshire",
      "county":"RG40 1AL",
      "postcode":"01189 799070",
      "telephone":"0395@southerncoops.co.uk",
      "email":"51.4101039",
      "latitude":-0.834301,
      "longitude":"No",
      "carPark":"https://mostlane.sharepoint.com/Mostlane%20Shared%20Documents/Forms/AllItems.aspx?id=%2FMostlane%20Shared%20Documents%2FMostlane%20Construction%2FTSC%20Compliance%2FRetail%2F395%20Wokingham%20Market%20Place"
   },
   "5000128093237":{
      "branchCode":"5000128093237",
      "storeName":"399",
      "monday":"Church Crookham, Aldershot Road",
      "tuesday":"07:00-22:00",
      "wednesday":"07:00-22:00",
      "thursday":"07:00-22:00",
      "friday":"07:00-22:00",
      "saturday":"07:00-22:00",
      "sunday":"07:00-22:00",
      "area":"07:00-22:00",
      "areaManager":"13",
      "address":"100 Aldershot Road",
      "town":"Hampshire",
      "county":"GU52 8JR",
      "postcode":"01252 810943",
      "telephone":"0399@southerncoops.co.uk",
      "email":"51.2603099",
      "latitude":-0.8371222,
      "longitude":"Yes",
      "carPark":"https://mostlane.sharepoint.com/Mostlane%20Shared%20Documents/Forms/AllItems.aspx?id=%2FMostlane%20Shared%20Documents%2FMostlane%20Construction%2FTSC%20Compliance%2FRetail%2F399%20Church%20Crookham%20Aldershot%20Road"
   },
   "":{
      "branchCode":"",
      "storeName":"9712",
      "monday":"Ashurst, Lyndhurst Road",
      "tuesday":"06:00 - 22:00",
      "wednesday":"06:00 - 22:00",
      "thursday":"06:00 - 22:00",
      "friday":"06:00 - 22:00",
      "saturday":"06:00 - 22:00",
      "sunday":"06:00 - 22:00",
      "area":"07:00 - 22:00",
      "areaManager":"14",
      "address":"82 Lyndhurst Road, ",
      "town":"",
      "county":"SO40 7BE",
      "postcode":"02380 293114",
      "telephone":"Ashurst9712@welcome-retail.co.uk",
      "email":"",
      "latitude":,
      "longitude":"No",
      "carPark":"https://mostlane.sharepoint.com/Mostlane%20Shared%20Documents/Mostlane%20Construction/TSC%20Compliance/Welcome/9712%20Welcome%20Ashurst%2C%20Lyndhurst%20Road"
   },
   "":{
      "branchCode":"",
      "storeName":"9746",
      "monday":"Brockenhurst, Brookley Road",
      "tuesday":"06:00 - 21:00",
      "wednesday":"06:00 - 21:00",
      "thursday":"06:00 - 21:00",
      "friday":"06:00 - 21:00",
      "saturday":"06:00 - 21:00",
      "sunday":"06:00 - 21:00",
      "area":"07:00 - 21:00",
      "areaManager":"14",
      "address":"62 Brookley Road",
      "town":"Hampshire",
      "county":"SO42 7RA",
      "postcode":"01590 624457",
      "telephone":"Brockenhurst9746@welcome-retail.co.uk",
      "email":"",
      "latitude":,
      "longitude":"No",
      "carPark":"https://mostlane.sharepoint.com/Mostlane%20Shared%20Documents/Mostlane%20Construction/TSC%20Compliance/Welcome/9746%20Welcome%20Brockenhurst%2C%20Brookley%20Road"
   },
   "":{
      "branchCode":"",
      "storeName":"9701",
      "monday":"Denvilles, Snowberry Crescent",
      "tuesday":"06:00 - 22:00",
      "wednesday":"06:00 - 22:00",
      "thursday":"06:00 - 22:00",
      "friday":"06:00 - 22:00",
      "saturday":"06:00 - 22:00",
      "sunday":"06:00 - 22:00",
      "area":"07:00 - 22:00",
      "areaManager":"14",
      "address":"40 Snowberry Crescent",
      "town":"Hampshire",
      "county":"PO9 2FE",
      "postcode":"02392 450045",
      "telephone":"Denvilles9701@welcome-retail.co.uk",
      "email":"",
      "latitude":,
      "longitude":"No",
      "carPark":"https://mostlane.sharepoint.com/Mostlane%20Shared%20Documents/Mostlane%20Construction/TSC%20Compliance/Welcome/9701%20Welcome%20Denvilles%2C%20Snowberry%20Crescent"
   },
   "":{
      "branchCode":"",
      "storeName":"9704",
      "monday":"Fair Oak, Fair Oak Road ",
      "tuesday":"06:00 - 22:00",
      "wednesday":"06:00 - 22:00",
      "thursday":"06:00 - 22:00",
      "friday":"06:00 - 22:00",
      "saturday":"06:00 - 22:00",
      "sunday":"06:00 - 22:00",
      "area":"07:00 - 22:00",
      "areaManager":"14",
      "address":"Fair Oak Road",
      "town":"Hampshire",
      "county":"SO50 7AL",
      "postcode":"02380 694177",
      "telephone":"FairOak9704@welcome-retail.co.uk",
      "email":"",
      "latitude":,
      "longitude":"No",
      "carPark":"https://mostlane.sharepoint.com/Mostlane%20Shared%20Documents/Mostlane%20Construction/TSC%20Compliance/Welcome/9704%20Welcome%20Fair%20Oak%2C%20Fair%20Oak%20Road"
   },
   "":{
      "branchCode":"",
      "storeName":"9710",
      "monday":"Marchwood, Marchwood Village",
      "tuesday":"06:00 - 22:00",
      "wednesday":"06:00 - 22:00",
      "thursday":"06:00 - 22:00",
      "friday":"06:00 - 22:00",
      "saturday":"06:00 - 22:00",
      "sunday":"06:00 - 22:00",
      "area":"07:00 - 22:00",
      "areaManager":"14",
      "address":"Marchwood Village Centre",
      "town":"",
      "county":"SO40 4SF",
      "postcode":"02380 871090",
      "telephone":"Marchwood9710@welcome-retail.co.uk",
      "email":"",
      "latitude":,
      "longitude":"No",
      "carPark":"https://mostlane.sharepoint.com/Mostlane%20Shared%20Documents/Mostlane%20Construction/TSC%20Compliance/Welcome/9710%20Marchwood%2C%20Marchwood%20Village"
   },
   "":{
      "branchCode":"",
      "storeName":"9711",
      "monday":"Stubbington, Upper Old Street",
      "tuesday":"06:00 - 22:00",
      "wednesday":"06:00 - 22:00",
      "thursday":"06:00 - 22:00",
      "friday":"06:00 - 22:00",
      "saturday":"06:00 - 22:00",
      "sunday":"06:00 - 22:00",
      "area":"07:00 - 22:00",
      "areaManager":"14",
      "address":"1 Upper Old Street",
      "town":"Hants",
      "county":"PO14 3LJ",
      "postcode":"01329 661911",
      "telephone":"Stubbington9711@welcome-retail.co.uk",
      "email":"",
      "latitude":,
      "longitude":"No",
      "carPark":"https://mostlane.sharepoint.com/Mostlane%20Shared%20Documents/Mostlane%20Construction/TSC%20Compliance/Welcome/9711%20Welcome%20Stubbington%2C%20Upper%20Old%20Street"
   },
   "":{
      "branchCode":"",
      "storeName":"436",
      "monday":"Fontwell, Steeplechase Way",
      "tuesday":"07:00-22:00",
      "wednesday":"07:00-22:00",
      "thursday":"07:00-22:00",
      "friday":"07:00-22:00",
      "saturday":"07:00-22:00",
      "sunday":"07:00-22:00",
      "area":"07:00-22:00",
      "areaManager":"10",
      "address":"1 Steeplechase Way",
      "town":"",
      "county":"BN18 0UF",
      "postcode":"1243210490",
      "telephone":"0436@southerncoops.co.uk",
      "email":"50.8537869",
      "latitude":-0.6516697,
      "longitude":"Yes",
      "carPark":"https://mostlane.sharepoint.com/Mostlane%20Shared%20Documents/Mostlane%20Construction/TSC%20Compliance/Retail/436%20Fontwell%20Steeplechase%20Way"
   }
}
